{
"type": "FeatureCollection",
"crs": { "type": "name", "properties": { "name": "urn:ogc:def:crs:OGC:1.3:CRS84" } },
"features": [
{ "type": "Feature", "properties": { "行政区域コード": "13101", "公共施設大分類": "16", "公共施設小分類": "16001", "学校分類": "16001", "名称": "お茶の水小学校", "所在地": "猿楽町1-1-1", "管理者コード": 3.0 }, "geometry": { "type": "Point", "coordinates": [ 139.760433, 35.697347 ] } },
{ "type": "Feature", "properties": { "行政区域コード": "13101", "公共施設大分類": "16", "公共施設小分類": "16001", "学校分類": "16001", "名称": "暁星小学校", "所在地": "富士見1-1-13", "管理者コード": 4.0 }, "geometry": { "type": "Point", "coordinates": [ 139.748406, 35.698679 ] } },
{ "type": "Feature", "properties": { "行政区域コード": "13101", "公共施設大分類": "16", "公共施設小分類": "16001", "学校分類": "16001", "名称": "九段小学校", "所在地": "三番町16", "管理者コード": 3.0 }, "geometry": { "type": "Point", "coordinates": [ 139.740546, 35.690291 ] } },
{ "type": "Feature", "properties": { "行政区域コード": "13101", "公共施設大分類": "16", "公共施設小分類": "16001", "学校分類": "16001", "名称": "麹町小学校", "所在地": "麹町2-8", "管理者コード": 3.0 }, "geometry": { "type": "Point", "coordinates": [ 139.739773781607511, 35.685527826299783 ] } },
{ "type": "Feature", "properties": { "行政区域コード": "13101", "公共施設大分類": "16", "公共施設小分類": "16001", "学校分類": "16001", "名称": "昌平小学校", "所在地": "外神田3-4-7", "管理者コード": 3.0 }, "geometry": { "type": "Point", "coordinates": [ 139.769904, 35.701152 ] } },
{ "type": "Feature", "properties": { "行政区域コード": "13101", "公共施設大分類": "16", "公共施設小分類": "16001", "学校分類": "16001", "名称": "千代田小学校", "所在地": "神田司町2-16", "管理者コード": 3.0 }, "geometry": { "type": "Point", "coordinates": [ 139.76846, 35.693486 ] } },
{ "type": "Feature", "properties": { "行政区域コード": "13101", "公共施設大分類": "16", "公共施設小分類": "16001", "学校分類": "16001", "名称": "白百合学園小学校", "所在地": "九段北2-4-1", "管理者コード": 4.0 }, "geometry": { "type": "Point", "coordinates": [ 139.745406, 35.695763 ] } },
{ "type": "Feature", "properties": { "行政区域コード": "13101", "公共施設大分類": "16", "公共施設小分類": "16001", "学校分類": "16001", "名称": "番町小学校", "所在地": "六番町8", "管理者コード": 3.0 }, "geometry": { "type": "Point", "coordinates": [ 139.734074, 35.688069 ] } },
{ "type": "Feature", "properties": { "行政区域コード": "13101", "公共施設大分類": "16", "公共施設小分類": "16001", "学校分類": "16001", "名称": "富士見小学校", "所在地": "富士見1-10-3", "管理者コード": 3.0 }, "geometry": { "type": "Point", "coordinates": [ 139.746190290093438, 35.697398034646163 ] } },
{ "type": "Feature", "properties": { "行政区域コード": "13101", "公共施設大分類": "16", "公共施設小分類": "16001", "学校分類": "16001", "名称": "和泉小学校", "所在地": "神田和泉町1", "管理者コード": 3.0 }, "geometry": { "type": "Point", "coordinates": [ 139.778599, 35.699319 ] } },
{ "type": "Feature", "properties": { "行政区域コード": "13101", "公共施設大分類": "16", "公共施設小分類": "16001", "学校分類": "16001", "名称": "雙葉小学校", "所在地": "六番町14-1", "管理者コード": 4.0 }, "geometry": { "type": "Point", "coordinates": [ 139.731824, 35.687236 ] } },
{ "type": "Feature", "properties": { "行政区域コード": "13101", "公共施設大分類": "16", "公共施設小分類": "16002", "学校分類": "16002", "名称": "共立女子中学校", "所在地": "一ツ橋2-2-1", "管理者コード": 4.0 }, "geometry": { "type": "Point", "coordinates": [ 139.757714952374158, 35.693110438708885 ] } },
{ "type": "Feature", "properties": { "行政区域コード": "13101", "公共施設大分類": "16", "公共施設小分類": "16002", "学校分類": "16002", "名称": "暁星中学校", "所在地": "富士見1-2-5", "管理者コード": 4.0 }, "geometry": { "type": "Point", "coordinates": [ 139.747823, 35.698068 ] } },
{ "type": "Feature", "properties": { "行政区域コード": "13101", "公共施設大分類": "16", "公共施設小分類": "16002", "学校分類": "16002", "名称": "麹町学園女子中学校", "所在地": "麹町3-8", "管理者コード": 4.0 }, "geometry": { "type": "Point", "coordinates": [ 139.739213, 35.684958 ] } },
{ "type": "Feature", "properties": { "行政区域コード": "13101", "公共施設大分類": "16", "公共施設小分類": "16002", "学校分類": "16002", "名称": "麹町中学校", "所在地": "平河町2-5-1", "管理者コード": 3.0 }, "geometry": { "type": "Point", "coordinates": [ 139.738769, 35.680598 ] } },
{ "type": "Feature", "properties": { "行政区域コード": "13101", "公共施設大分類": "16", "公共施設小分類": "16002", "学校分類": "16002", "名称": "三輪田学園中学校", "所在地": "九段北3-3-15", "管理者コード": 4.0 }, "geometry": { "type": "Point", "coordinates": [ 139.740268, 35.694485 ] } },
{ "type": "Feature", "properties": { "行政区域コード": "13101", "公共施設大分類": "16", "公共施設小分類": "16002", "学校分類": "16002", "名称": "女子学院中学校", "所在地": "一番町22-10", "管理者コード": 4.0 }, "geometry": { "type": "Point", "coordinates": [ 139.738546, 35.687569 ] } },
{ "type": "Feature", "properties": { "行政区域コード": "13101", "公共施設大分類": "16", "公共施設小分類": "16002", "学校分類": "16002", "名称": "神田一橋中学校", "所在地": "一ツ橋2-6-14", "管理者コード": 3.0 }, "geometry": { "type": "Point", "coordinates": [ 139.756822, 35.694708 ] } },
{ "type": "Feature", "properties": { "行政区域コード": "13101", "公共施設大分類": "16", "公共施設小分類": "16002", "学校分類": "16002", "名称": "神田女学園中学校", "所在地": "猿楽町2-3-6", "管理者コード": 4.0 }, "geometry": { "type": "Point", "coordinates": [ 139.758155, 35.699874 ] } },
{ "type": "Feature", "properties": { "行政区域コード": "13101", "公共施設大分類": "16", "公共施設小分類": "16002", "学校分類": "16002", "名称": "千代田女学園中学校", "所在地": "四番町11", "管理者コード": 4.0 }, "geometry": { "type": "Point", "coordinates": [ 139.739213, 35.688847 ] } },
{ "type": "Feature", "properties": { "行政区域コード": "13101", "公共施設大分類": "16", "公共施設小分類": "16002", "学校分類": "16002", "名称": "大妻中学校", "所在地": "三番町12", "管理者コード": 4.0 }, "geometry": { "type": "Point", "coordinates": [ 139.743684, 35.689847 ] } },
{ "type": "Feature", "properties": { "行政区域コード": "13101", "公共施設大分類": "16", "公共施設小分類": "16002", "学校分類": "16002", "名称": "東京家政学院中学校", "所在地": "三番町22", "管理者コード": 4.0 }, "geometry": { "type": "Point", "coordinates": [ 139.742185, 35.691486 ] } },
{ "type": "Feature", "properties": { "行政区域コード": "13101", "公共施設大分類": "16", "公共施設小分類": "16002", "学校分類": "16002", "名称": "白百合学園中学校", "所在地": "九段北2-4-1", "管理者コード": 4.0 }, "geometry": { "type": "Point", "coordinates": [ 139.744045, 35.695485 ] } },
{ "type": "Feature", "properties": { "行政区域コード": "13101", "公共施設大分類": "16", "公共施設小分類": "16002", "学校分類": "16002", "名称": "和洋九段女子中学校", "所在地": "九段北1-12-12", "管理者コード": 4.0 }, "geometry": { "type": "Point", "coordinates": [ 139.748878, 35.696652 ] } },
{ "type": "Feature", "properties": { "行政区域コード": "13101", "公共施設大分類": "16", "公共施設小分類": "99999", "学校分類": "16002", "名称": "雙葉中学校", "所在地": "六番町14-1", "管理者コード": 4.0 }, "geometry": { "type": "Point", "coordinates": [ 139.731787957308399, 35.6870922820451 ] } },
{ "type": "Feature", "properties": { "行政区域コード": "13101", "公共施設大分類": "16", "公共施設小分類": "16003", "学校分類": "16003", "名称": "九段中等教育学校", "所在地": "富士見1-10-4", "管理者コード": 3.0 }, "geometry": { "type": "Point", "coordinates": [ 139.747207, 35.696247 ] } },
{ "type": "Feature", "properties": { "行政区域コード": "13101", "公共施設大分類": "16", "公共施設小分類": "16004", "学校分類": "16004", "名称": "一橋高等学校", "所在地": "東神田1-12-13", "管理者コード": 2.0 }, "geometry": { "type": "Point", "coordinates": [ 139.781071, 35.69457 ] } },
{ "type": "Feature", "properties": { "行政区域コード": "13101", "公共施設大分類": "16", "公共施設小分類": "16004", "学校分類": "16004", "名称": "共立女子高等学校", "所在地": "一ツ橋2-2-1", "管理者コード": 4.0 }, "geometry": { "type": "Point", "coordinates": [ 139.757572, 35.693152 ] } },
{ "type": "Feature", "properties": { "行政区域コード": "13101", "公共施設大分類": "16", "公共施設小分類": "16004", "学校分類": "16004", "名称": "暁星高等学校", "所在地": "富士見1-2-5", "管理者コード": 4.0 }, "geometry": { "type": "Point", "coordinates": [ 139.748017, 35.697124 ] } },
{ "type": "Feature", "properties": { "行政区域コード": "13101", "公共施設大分類": "16", "公共施設小分類": "16004", "学校分類": "16004", "名称": "錦城学園高等学校", "所在地": "神田錦町3-1", "管理者コード": 4.0 }, "geometry": { "type": "Point", "coordinates": [ 139.761988, 35.692625 ] } },
{ "type": "Feature", "properties": { "行政区域コード": "13101", "公共施設大分類": "16", "公共施設小分類": "16004", "学校分類": "16004", "名称": "麹町学園女子高等学校", "所在地": "麹町3-8", "管理者コード": 4.0 }, "geometry": { "type": "Point", "coordinates": [ 139.739213, 35.684958 ] } },
{ "type": "Feature", "properties": { "行政区域コード": "13101", "公共施設大分類": "16", "公共施設小分類": "16004", "学校分類": "16004", "名称": "三輪田学園高等学校", "所在地": "九段北3-3-15", "管理者コード": 4.0 }, "geometry": { "type": "Point", "coordinates": [ 139.740268, 35.694485 ] } },
{ "type": "Feature", "properties": { "行政区域コード": "13101", "公共施設大分類": "16", "公共施設小分類": "16004", "学校分類": "16004", "名称": "女子学院高等学校", "所在地": "一番町22-10", "管理者コード": 4.0 }, "geometry": { "type": "Point", "coordinates": [ 139.738546, 35.687569 ] } },
{ "type": "Feature", "properties": { "行政区域コード": "13101", "公共施設大分類": "16", "公共施設小分類": "16004", "学校分類": "16004", "名称": "神田女学園高等学校", "所在地": "猿楽町2-3-6", "管理者コード": 4.0 }, "geometry": { "type": "Point", "coordinates": [ 139.758155, 35.699874 ] } },
{ "type": "Feature", "properties": { "行政区域コード": "13101", "公共施設大分類": "16", "公共施設小分類": "16004", "学校分類": "16004", "名称": "正則学園高等学校", "所在地": "神田錦町3-1", "管理者コード": 4.0 }, "geometry": { "type": "Point", "coordinates": [ 139.761366, 35.692646 ] } },
{ "type": "Feature", "properties": { "行政区域コード": "13101", "公共施設大分類": "16", "公共施設小分類": "16004", "学校分類": "16004", "名称": "千代田女学園高等学校", "所在地": "四番町11", "管理者コード": 4.0 }, "geometry": { "type": "Point", "coordinates": [ 139.739213, 35.688847 ] } },
{ "type": "Feature", "properties": { "行政区域コード": "13101", "公共施設大分類": "16", "公共施設小分類": "16004", "学校分類": "16004", "名称": "大妻高等学校", "所在地": "三番町12", "管理者コード": 4.0 }, "geometry": { "type": "Point", "coordinates": [ 139.743684, 35.689847 ] } },
{ "type": "Feature", "properties": { "行政区域コード": "13101", "公共施設大分類": "16", "公共施設小分類": "16004", "学校分類": "16004", "名称": "東京家政学院高等学校", "所在地": "三番町22", "管理者コード": 4.0 }, "geometry": { "type": "Point", "coordinates": [ 139.742185, 35.691486 ] } },
{ "type": "Feature", "properties": { "行政区域コード": "13101", "公共施設大分類": "16", "公共施設小分類": "16004", "学校分類": "16004", "名称": "東洋高等学校", "所在地": "三崎町1-4-16", "管理者コード": 4.0 }, "geometry": { "type": "Point", "coordinates": [ 139.755683, 35.701429 ] } },
{ "type": "Feature", "properties": { "行政区域コード": "13101", "公共施設大分類": "16", "公共施設小分類": "16004", "学校分類": "16004", "名称": "二松學舎大学附属高等学校", "所在地": "九段南2-1-32", "管理者コード": 4.0 }, "geometry": { "type": "Point", "coordinates": [ 139.746545, 35.69243 ] } },
{ "type": "Feature", "properties": { "行政区域コード": "13101", "公共施設大分類": "16", "公共施設小分類": "16004", "学校分類": "16004", "名称": "日比谷高等学校", "所在地": "永田町2-16-1", "管理者コード": 2.0 }, "geometry": { "type": "Point", "coordinates": [ 139.739435, 35.676043 ] } },
{ "type": "Feature", "properties": { "行政区域コード": "13101", "公共施設大分類": "16", "公共施設小分類": "16004", "学校分類": "16004", "名称": "白百合学園高等学校", "所在地": "九段北2-4-1", "管理者コード": 4.0 }, "geometry": { "type": "Point", "coordinates": [ 139.744045, 35.695485 ] } },
{ "type": "Feature", "properties": { "行政区域コード": "13101", "公共施設大分類": "16", "公共施設小分類": "16004", "学校分類": "16004", "名称": "和洋九段女子高等学校", "所在地": "九段北1-12-12", "管理者コード": 4.0 }, "geometry": { "type": "Point", "coordinates": [ 139.748878, 35.696652 ] } },
{ "type": "Feature", "properties": { "行政区域コード": "13101", "公共施設大分類": "16", "公共施設小分類": "16004", "学校分類": "16004", "名称": "雙葉高等学校", "所在地": "六番町14-1", "管理者コード": 4.0 }, "geometry": { "type": "Point", "coordinates": [ 139.731824, 35.687236 ] } },
{ "type": "Feature", "properties": { "行政区域コード": "13101", "公共施設大分類": "16", "公共施設小分類": "99999", "学校分類": "16004", "名称": "大原学園高等学校", "所在地": "神田神保町2-42", "管理者コード": 4.0 }, "geometry": { "type": "Point", "coordinates": [ 139.755923, 35.697947 ] } },
{ "type": "Feature", "properties": { "行政区域コード": "13101", "公共施設大分類": "16", "公共施設小分類": "16006", "学校分類": "16006", "名称": "共立女子短期大学", "所在地": "一ツ橋2-2-1", "管理者コード": 4.0 }, "geometry": { "type": "Point", "coordinates": [ 139.757572, 35.693152 ] } },
{ "type": "Feature", "properties": { "行政区域コード": "13101", "公共施設大分類": "16", "公共施設小分類": "16006", "学校分類": "16006", "名称": "共立女子短期大学", "所在地": "神田神保町3-27", "管理者コード": 4.0 }, "geometry": { "type": "Point", "coordinates": [ 139.754906, 35.694597 ] } },
{ "type": "Feature", "properties": { "行政区域コード": "13101", "公共施設大分類": "16", "公共施設小分類": "16006", "学校分類": "16006", "名称": "大妻女子大学短期大学部", "所在地": "三番町12", "管理者コード": 4.0 }, "geometry": { "type": "Point", "coordinates": [ 139.742629, 35.690986 ] } },
{ "type": "Feature", "properties": { "行政区域コード": "13101", "公共施設大分類": "16", "公共施設小分類": "16006", "学校分類": "16006", "名称": "日本歯科大学東京短期大学", "所在地": "富士見2-3-16", "管理者コード": 4.0 }, "geometry": { "type": "Point", "coordinates": [ 139.744878, 35.697068 ] } },
{ "type": "Feature", "properties": { "行政区域コード": "13101", "公共施設大分類": "16", "公共施設小分類": "99999", "学校分類": "16006", "名称": "共立女子短期大学", "所在地": "一ツ橋2-6-1", "管理者コード": 4.0 }, "geometry": { "type": "Point", "coordinates": [ 139.754851374952182, 35.694575981897728 ] } },
{ "type": "Feature", "properties": { "行政区域コード": "13101", "公共施設大分類": "16", "公共施設小分類": "16007", "学校分類": "16007", "名称": "ＬＥＣ東京リーガルマインド大学", "所在地": "三崎町2-7-10", "管理者コード": 4.0 }, "geometry": { "type": "Point", "coordinates": [ 139.754882866990897, 35.699839809875741 ] } },
{ "type": "Feature", "properties": { "行政区域コード": "13101", "公共施設大分類": "16", "公共施設小分類": "16007", "学校分類": "16007", "名称": "グロービス経営大学院大学", "所在地": "二番町5-1（住友不動産麹町ビル）", "管理者コード": 4.0 }, "geometry": { "type": "Point", "coordinates": [ 139.736748, 35.685325 ] } },
{ "type": "Feature", "properties": { "行政区域コード": "13101", "公共施設大分類": "16", "公共施設小分類": "16007", "学校分類": "16007", "名称": "デジタルハリウッド大学", "所在地": "外神田1-18-13", "管理者コード": 4.0 }, "geometry": { "type": "Point", "coordinates": [ 139.772156, 35.699373 ] } },
{ "type": "Feature", "properties": { "行政区域コード": "13101", "公共施設大分類": "16", "公共施設小分類": "16007", "学校分類": "16007", "名称": "ビジネス・ブレークスルー大学院大学", "所在地": "六番町1-7", "管理者コード": 4.0 }, "geometry": { "type": "Point", "coordinates": [ 139.734937, 35.687736 ] } },
{ "type": "Feature", "properties": { "行政区域コード": "13101", "公共施設大分類": "16", "公共施設小分類": "16007", "学校分類": "16007", "名称": "共立女子大学", "所在地": "一ツ橋2-2-1", "管理者コード": 4.0 }, "geometry": { "type": "Point", "coordinates": [ 139.757572, 35.693152 ] } },
{ "type": "Feature", "properties": { "行政区域コード": "13101", "公共施設大分類": "16", "公共施設小分類": "16007", "学校分類": "16007", "名称": "上智大学", "所在地": "紀尾井町7-1", "管理者コード": 4.0 }, "geometry": { "type": "Point", "coordinates": [ 139.73188, 35.683597 ] } },
{ "type": "Feature", "properties": { "行政区域コード": "13101", "公共施設大分類": "16", "公共施設小分類": "16007", "学校分類": "16007", "名称": "専修大学", "所在地": "神田神保町3-8-1", "管理者コード": 4.0 }, "geometry": { "type": "Point", "coordinates": [ 139.753933, 35.696985 ] } },
{ "type": "Feature", "properties": { "行政区域コード": "13101", "公共施設大分類": "16", "公共施設小分類": "16007", "学校分類": "16007", "名称": "総合研究大学院大学", "所在地": "一ツ橋2-1-2", "管理者コード": 1.0 }, "geometry": { "type": "Point", "coordinates": [ 139.758225, 35.692494 ] } },
{ "type": "Feature", "properties": { "行政区域コード": "13101", "公共施設大分類": "16", "公共施設小分類": "16007", "学校分類": "16007", "名称": "大原大学院大学", "所在地": "西神田2-2-10", "管理者コード": 4.0 }, "geometry": { "type": "Point", "coordinates": [ 139.755586754242927, 35.69874082548251 ] } },
{ "type": "Feature", "properties": { "行政区域コード": "13101", "公共施設大分類": "16", "公共施設小分類": "16007", "学校分類": "16007", "名称": "大妻女子大学", "所在地": "三番町12", "管理者コード": 4.0 }, "geometry": { "type": "Point", "coordinates": [ 139.742629, 35.690986 ] } },
{ "type": "Feature", "properties": { "行政区域コード": "13101", "公共施設大分類": "16", "公共施設小分類": "16007", "学校分類": "16007", "名称": "東京理科大学", "所在地": "九段北1-14-6", "管理者コード": 4.0 }, "geometry": { "type": "Point", "coordinates": [ 139.749241, 35.695711 ] } },
{ "type": "Feature", "properties": { "行政区域コード": "13101", "公共施設大分類": "16", "公共施設小分類": "16007", "学校分類": "16007", "名称": "二松学舎大学", "所在地": "三番町6-16", "管理者コード": 4.0 }, "geometry": { "type": "Point", "coordinates": [ 139.745629, 35.692069 ] } },
{ "type": "Feature", "properties": { "行政区域コード": "13101", "公共施設大分類": "16", "公共施設小分類": "16007", "学校分類": "16007", "名称": "日本教育大学院大学", "所在地": "神田須田町1-2-3", "管理者コード": 4.0 }, "geometry": { "type": "Point", "coordinates": [ 139.767750465794222, 35.694998275475228 ] } },
{ "type": "Feature", "properties": { "行政区域コード": "13101", "公共施設大分類": "16", "公共施設小分類": "16007", "学校分類": "16007", "名称": "日本歯科大学", "所在地": "富士見1-9-20", "管理者コード": 4.0 }, "geometry": { "type": "Point", "coordinates": [ 139.745851, 35.697763 ] } },
{ "type": "Feature", "properties": { "行政区域コード": "13101", "公共施設大分類": "16", "公共施設小分類": "16007", "学校分類": "16007", "名称": "日本大学", "所在地": "三崎町1-3-2", "管理者コード": 4.0 }, "geometry": { "type": "Point", "coordinates": [ 139.756239, 35.700318 ] } },
{ "type": "Feature", "properties": { "行政区域コード": "13101", "公共施設大分類": "16", "公共施設小分類": "16007", "学校分類": "16007", "名称": "日本大学", "所在地": "三崎町2-3-1", "管理者コード": 4.0 }, "geometry": { "type": "Point", "coordinates": [ 139.754292, 35.699705 ] } },
{ "type": "Feature", "properties": { "行政区域コード": "13101", "公共施設大分類": "16", "公共施設小分類": "16007", "学校分類": "16007", "名称": "日本大学", "所在地": "神田駿河台1-8-13", "管理者コード": 4.0 }, "geometry": { "type": "Point", "coordinates": [ 139.763905, 35.69818 ] } },
{ "type": "Feature", "properties": { "行政区域コード": "13101", "公共施設大分類": "16", "公共施設小分類": "16007", "学校分類": "16007", "名称": "法政大学", "所在地": "富士見2-17-1", "管理者コード": 4.0 }, "geometry": { "type": "Point", "coordinates": [ 139.74124, 35.695346 ] } },
{ "type": "Feature", "properties": { "行政区域コード": "13101", "公共施設大分類": "16", "公共施設小分類": "16007", "学校分類": "16007", "名称": "明治大学", "所在地": "神田駿河台1-1", "管理者コード": 4.0 }, "geometry": { "type": "Point", "coordinates": [ 139.762155, 35.698458 ] } },
{ "type": "Feature", "properties": { "行政区域コード": "13101", "公共施設大分類": "16", "公共施設小分類": "99999", "学校分類": "16007", "名称": "共立女子大学", "所在地": "神田神保町3-27", "管理者コード": 4.0 }, "geometry": { "type": "Point", "coordinates": [ 139.754921419813201, 35.694594208878542 ] } },
{ "type": "Feature", "properties": { "行政区域コード": "13101", "公共施設大分類": "16", "公共施設小分類": "99999", "学校分類": "16007", "名称": "日本大学", "所在地": "九段南4-8-24", "管理者コード": 4.0 }, "geometry": { "type": "Point", "coordinates": [ 139.737480290093401, 35.691127218479288 ] } },
{ "type": "Feature", "properties": { "行政区域コード": "13102", "公共施設大分類": "16", "公共施設小分類": "16001", "学校分類": "16001", "名称": "久松小学校", "所在地": "日本橋久松町7-2", "管理者コード": 3.0 }, "geometry": { "type": "Point", "coordinates": [ 139.784559, 35.688958 ] } },
{ "type": "Feature", "properties": { "行政区域コード": "13102", "公共施設大分類": "16", "公共施設小分類": "16001", "学校分類": "16001", "名称": "京橋築地小学校", "所在地": "築地2-13-1", "管理者コード": 3.0 }, "geometry": { "type": "Point", "coordinates": [ 139.771405, 35.667989 ] } },
{ "type": "Feature", "properties": { "行政区域コード": "13102", "公共施設大分類": "16", "公共施設小分類": "16001", "学校分類": "16001", "名称": "月島第一小学校", "所在地": "月島4-15-1", "管理者コード": 3.0 }, "geometry": { "type": "Point", "coordinates": [ 139.780266, 35.660851 ] } },
{ "type": "Feature", "properties": { "行政区域コード": "13102", "公共施設大分類": "16", "公共施設小分類": "16001", "学校分類": "16001", "名称": "月島第三小学校", "所在地": "晴海1-4-1", "管理者コード": 3.0 }, "geometry": { "type": "Point", "coordinates": [ 139.785626, 35.658879 ] } },
{ "type": "Feature", "properties": { "行政区域コード": "13102", "公共施設大分類": "16", "公共施設小分類": "16001", "学校分類": "16001", "名称": "月島第二小学校", "所在地": "勝どき1-12-2", "管理者コード": 3.0 }, "geometry": { "type": "Point", "coordinates": [ 139.775822, 35.660212 ] } },
{ "type": "Feature", "properties": { "行政区域コード": "13102", "公共施設大分類": "16", "公共施設小分類": "16001", "学校分類": "16001", "名称": "阪本小学校", "所在地": "日本橋兜町15-18", "管理者コード": 3.0 }, "geometry": { "type": "Point", "coordinates": [ 139.77671, 35.679738 ] } },
{ "type": "Feature", "properties": { "行政区域コード": "13102", "公共施設大分類": "16", "公共施設小分類": "16001", "学校分類": "16001", "名称": "城東小学校", "所在地": "八重洲2-2-2", "管理者コード": 3.0 }, "geometry": { "type": "Point", "coordinates": [ 139.769211, 35.679349 ] } },
{ "type": "Feature", "properties": { "行政区域コード": "13102", "公共施設大分類": "16", "公共施設小分類": "16001", "学校分類": "16001", "名称": "常盤小学校", "所在地": "日本橋本石町4-4-26", "管理者コード": 3.0 }, "geometry": { "type": "Point", "coordinates": [ 139.770627, 35.688459 ] } },
{ "type": "Feature", "properties": { "行政区域コード": "13102", "公共施設大分類": "16", "公共施設小分類": "16001", "学校分類": "16001", "名称": "泰明小学校", "所在地": "銀座5-1-13", "管理者コード": 3.0 }, "geometry": { "type": "Point", "coordinates": [ 139.761767, 35.672433 ] } },
{ "type": "Feature", "properties": { "行政区域コード": "13102", "公共施設大分類": "16", "公共施設小分類": "16001", "学校分類": "16001", "名称": "中央小学校", "所在地": "湊1-4-1", "管理者コード": 3.0 }, "geometry": { "type": "Point", "coordinates": [ 139.778731304371291, 35.672294543820946 ] } },
{ "type": "Feature", "properties": { "行政区域コード": "13102", "公共施設大分類": "16", "公共施設小分類": "16001", "学校分類": "16001", "名称": "佃島小学校", "所在地": "佃2-3-1", "管理者コード": 3.0 }, "geometry": { "type": "Point", "coordinates": [ 139.784599, 35.668572 ] } },
{ "type": "Feature", "properties": { "行政区域コード": "13102", "公共施設大分類": "16", "公共施設小分類": "16001", "学校分類": "16001", "名称": "日本橋小学校", "所在地": "日本橋人形町1-1-17", "管理者コード": 3.0 }, "geometry": { "type": "Point", "coordinates": [ 139.781377, 35.684848 ] } },
{ "type": "Feature", "properties": { "行政区域コード": "13102", "公共施設大分類": "16", "公共施設小分類": "16001", "学校分類": "16001", "名称": "豊海小学校", "所在地": "勝どき6-6-2", "管理者コード": 3.0 }, "geometry": { "type": "Point", "coordinates": [ 139.77285, 35.654379 ] } },
{ "type": "Feature", "properties": { "行政区域コード": "13102", "公共施設大分類": "16", "公共施設小分類": "16001", "学校分類": "16001", "名称": "明正小学校", "所在地": "新川2-13-4", "管理者コード": 3.0 }, "geometry": { "type": "Point", "coordinates": [ 139.782126, 35.676016 ] } },
{ "type": "Feature", "properties": { "行政区域コード": "13102", "公共施設大分類": "16", "公共施設小分類": "16001", "学校分類": "16001", "名称": "明石小学校", "所在地": "明石町1-15", "管理者コード": 3.0 }, "geometry": { "type": "Point", "coordinates": [ 139.77621, 35.668683 ] } },
{ "type": "Feature", "properties": { "行政区域コード": "13102", "公共施設大分類": "16", "公共施設小分類": "16001", "学校分類": "16001", "名称": "有馬小学校", "所在地": "日本橋蛎殼町2-10-23", "管理者コード": 3.0 }, "geometry": { "type": "Point", "coordinates": [ 139.787635, 35.683533 ] } },
{ "type": "Feature", "properties": { "行政区域コード": "13102", "公共施設大分類": "16", "公共施設小分類": "16002", "学校分類": "16002", "名称": "銀座中学校", "所在地": "銀座8-19-15", "管理者コード": 3.0 }, "geometry": { "type": "Point", "coordinates": [ 139.764934, 35.665628 ] } },
{ "type": "Feature", "properties": { "行政区域コード": "13102", "公共施設大分類": "16", "公共施設小分類": "16002", "学校分類": "16002", "名称": "晴海中学校", "所在地": "晴海1-5-3", "管理者コード": 3.0 }, "geometry": { "type": "Point", "coordinates": [ 139.784849, 35.659546 ] } },
{ "type": "Feature", "properties": { "行政区域コード": "13102", "公共施設大分類": "16", "公共施設小分類": "16002", "学校分類": "16002", "名称": "佃中学校", "所在地": "佃2-3-2", "管理者コード": 3.0 }, "geometry": { "type": "Point", "coordinates": [ 139.784987, 35.667989 ] } },
{ "type": "Feature", "properties": { "行政区域コード": "13102", "公共施設大分類": "16", "公共施設小分類": "16002", "学校分類": "16002", "名称": "日本橋女学館中学校", "所在地": "日本橋馬喰町2-7-6", "管理者コード": 4.0 }, "geometry": { "type": "Point", "coordinates": [ 139.784266, 35.695931 ] } },
{ "type": "Feature", "properties": { "行政区域コード": "13102", "公共施設大分類": "16", "公共施設小分類": "16002", "学校分類": "16002", "名称": "日本橋中学校", "所在地": "東日本橋1-10-1", "管理者コード": 3.0 }, "geometry": { "type": "Point", "coordinates": [ 139.787071, 35.692459 ] } },
{ "type": "Feature", "properties": { "行政区域コード": "13102", "公共施設大分類": "16", "公共施設小分類": "16004", "学校分類": "16004", "名称": "晴海総合高等学校", "所在地": "晴海1-2-1", "管理者コード": 2.0 }, "geometry": { "type": "Point", "coordinates": [ 139.78621, 35.660629 ] } },
{ "type": "Feature", "properties": { "行政区域コード": "13102", "公共施設大分類": "16", "公共施設小分類": "16004", "学校分類": "16004", "名称": "日本橋女学館高等学校", "所在地": "日本橋馬喰町2-7-6", "管理者コード": 4.0 }, "geometry": { "type": "Point", "coordinates": [ 139.784266, 35.695931 ] } },
{ "type": "Feature", "properties": { "行政区域コード": "13102", "公共施設大分類": "16", "公共施設小分類": "16007", "学校分類": "16007", "名称": "聖路加看護大学", "所在地": "明石町10-1", "管理者コード": 4.0 }, "geometry": { "type": "Point", "coordinates": [ 139.775877, 35.66785 ] } },
{ "type": "Feature", "properties": { "行政区域コード": "13103", "公共施設大分類": "16", "公共施設小分類": "16001", "学校分類": "16001", "名称": "御成門小学校", "所在地": "芝公園3-2-4", "管理者コード": 3.0 }, "geometry": { "type": "Point", "coordinates": [ 139.749629, 35.661156 ] } },
{ "type": "Feature", "properties": { "行政区域コード": "13103", "公共施設大分類": "16", "公共施設小分類": "16001", "学校分類": "16001", "名称": "御田小学校", "所在地": "三田4-11-38", "管理者コード": 3.0 }, "geometry": { "type": "Point", "coordinates": [ 139.738079, 35.643085 ] } },
{ "type": "Feature", "properties": { "行政区域コード": "13103", "公共施設大分類": "16", "公共施設小分類": "16001", "学校分類": "16001", "名称": "港南小学校", "所在地": "港南4-3-28", "管理者コード": 3.0 }, "geometry": { "type": "Point", "coordinates": [ 139.749645, 35.62923 ] } },
{ "type": "Feature", "properties": { "行政区域コード": "13103", "公共施設大分類": "16", "公共施設小分類": "16001", "学校分類": "16001", "名称": "港陽小学校", "所在地": "台場1-1-5", "管理者コード": 3.0 }, "geometry": { "type": "Point", "coordinates": [ 139.777236, 35.633842 ] } },
{ "type": "Feature", "properties": { "行政区域コード": "13103", "公共施設大分類": "16", "公共施設小分類": "16001", "学校分類": "16001", "名称": "高輪台小学校", "所在地": "高輪2-8-24", "管理者コード": 3.0 }, "geometry": { "type": "Point", "coordinates": [ 139.734271, 35.63638 ] } },
{ "type": "Feature", "properties": { "行政区域コード": "13103", "公共施設大分類": "16", "公共施設小分類": "16001", "学校分類": "16001", "名称": "三光小学校", "所在地": "白金3-18-2", "管理者コード": 3.0 }, "geometry": { "type": "Point", "coordinates": [ 139.729132, 35.644379 ] } },
{ "type": "Feature", "properties": { "行政区域コード": "13103", "公共施設大分類": "16", "公共施設小分類": "16001", "学校分類": "16001", "名称": "芝浦小学校", "所在地": "芝浦4-8-18", "管理者コード": 3.0 }, "geometry": { "type": "Point", "coordinates": [ 139.746215928298994, 35.638105879423549 ] } },
{ "type": "Feature", "properties": { "行政区域コード": "13103", "公共施設大分類": "16", "公共施設小分類": "16001", "学校分類": "16001", "名称": "芝小学校", "所在地": "芝2-21-3", "管理者コード": 3.0 }, "geometry": { "type": "Point", "coordinates": [ 139.750074, 35.651129 ] } },
{ "type": "Feature", "properties": { "行政区域コード": "13103", "公共施設大分類": "16", "公共施設小分類": "16001", "学校分類": "16001", "名称": "神応小学校", "所在地": "白金6-9-5", "管理者コード": 3.0 }, "geometry": { "type": "Point", "coordinates": [ 139.724438, 35.643602 ] } },
{ "type": "Feature", "properties": { "行政区域コード": "13103", "公共施設大分類": "16", "公共施設小分類": "16001", "学校分類": "16001", "名称": "聖心女子学院初等科", "所在地": "白金4-11-1", "管理者コード": 4.0 }, "geometry": { "type": "Point", "coordinates": [ 139.726216, 35.642157 ] } },
{ "type": "Feature", "properties": { "行政区域コード": "13103", "公共施設大分類": "16", "公共施設小分類": "16001", "学校分類": "16001", "名称": "青山小学校", "所在地": "南青山2-21-2", "管理者コード": 3.0 }, "geometry": { "type": "Point", "coordinates": [ 139.719132, 35.669849 ] } },
{ "type": "Feature", "properties": { "行政区域コード": "13103", "公共施設大分類": "16", "公共施設小分類": "16001", "学校分類": "16001", "名称": "青南小学校", "所在地": "南青山4-21-15", "管理者コード": 3.0 }, "geometry": { "type": "Point", "coordinates": [ 139.716132, 35.663488 ] } },
{ "type": "Feature", "properties": { "行政区域コード": "13103", "公共施設大分類": "16", "公共施設小分類": "16001", "学校分類": "16001", "名称": "赤羽小学校", "所在地": "三田1-4-52", "管理者コード": 3.0 }, "geometry": { "type": "Point", "coordinates": [ 139.74238, 35.653212 ] } },
{ "type": "Feature", "properties": { "行政区域コード": "13103", "公共施設大分類": "16", "公共施設小分類": "16001", "学校分類": "16001", "名称": "赤坂小学校", "所在地": "赤坂8-13-29", "管理者コード": 3.0 }, "geometry": { "type": "Point", "coordinates": [ 139.731131, 35.669404 ] } },
{ "type": "Feature", "properties": { "行政区域コード": "13103", "公共施設大分類": "16", "公共施設小分類": "16001", "学校分類": "16001", "名称": "東町小学校", "所在地": "南麻布1-8-11", "管理者コード": 3.0 }, "geometry": { "type": "Point", "coordinates": [ 139.735853, 35.650823 ] } },
{ "type": "Feature", "properties": { "行政区域コード": "13103", "公共施設大分類": "16", "公共施設小分類": "16001", "学校分類": "16001", "名称": "東洋英和女学院小学部", "所在地": "六本木5-6-14", "管理者コード": 4.0 }, "geometry": { "type": "Point", "coordinates": [ 139.733631, 35.661044 ] } },
{ "type": "Feature", "properties": { "行政区域コード": "13103", "公共施設大分類": "16", "公共施設小分類": "16001", "学校分類": "16001", "名称": "南山小学校", "所在地": "元麻布3-8-15", "管理者コード": 3.0 }, "geometry": { "type": "Point", "coordinates": [ 139.73102, 35.657156 ] } },
{ "type": "Feature", "properties": { "行政区域コード": "13103", "公共施設大分類": "16", "公共施設小分類": "16001", "学校分類": "16001", "名称": "白金小学校", "所在地": "白金台1-4-26", "管理者コード": 3.0 }, "geometry": { "type": "Point", "coordinates": [ 139.728577, 35.636825 ] } },
{ "type": "Feature", "properties": { "行政区域コード": "13103", "公共施設大分類": "16", "公共施設小分類": "16001", "学校分類": "16001", "名称": "本村小学校", "所在地": "南麻布3-9-33", "管理者コード": 3.0 }, "geometry": { "type": "Point", "coordinates": [ 139.729715, 35.649712 ] } },
{ "type": "Feature", "properties": { "行政区域コード": "13103", "公共施設大分類": "16", "公共施設小分類": "16001", "学校分類": "16001", "名称": "麻布小学校", "所在地": "麻布台1-5-15", "管理者コード": 3.0 }, "geometry": { "type": "Point", "coordinates": [ 139.738603, 35.661933 ] } },
{ "type": "Feature", "properties": { "行政区域コード": "13103", "公共施設大分類": "16", "公共施設小分類": "16001", "学校分類": "16001", "名称": "笄小学校", "所在地": "西麻布3-11-16", "管理者コード": 3.0 }, "geometry": { "type": "Point", "coordinates": [ 139.724854, 35.656378 ] } },
{ "type": "Feature", "properties": { "行政区域コード": "13103", "公共施設大分類": "16", "公共施設小分類": "16002", "学校分類": "16002", "名称": "広尾学園中学校", "所在地": "南麻布5-1-14", "管理者コード": 4.0 }, "geometry": { "type": "Point", "coordinates": [ 139.722465, 35.654295 ] } },
{ "type": "Feature", "properties": { "行政区域コード": "13103", "公共施設大分類": "16", "公共施設小分類": "16002", "学校分類": "16002", "名称": "慶應義塾中等部", "所在地": "三田2-17-10", "管理者コード": 4.0 }, "geometry": { "type": "Point", "coordinates": [ 139.740464, 35.648935 ] } },
{ "type": "Feature", "properties": { "行政区域コード": "13103", "公共施設大分類": "16", "公共施設小分類": "16002", "学校分類": "16002", "名称": "御成門中学校", "所在地": "西新橋3-25-30", "管理者コード": 3.0 }, "geometry": { "type": "Point", "coordinates": [ 139.750518, 35.661572 ] } },
{ "type": "Feature", "properties": { "行政区域コード": "13103", "公共施設大分類": "16", "公共施設小分類": "16002", "学校分類": "16002", "名称": "港南中学校", "所在地": "港南4-3-3", "管理者コード": 3.0 }, "geometry": { "type": "Point", "coordinates": [ 139.748936, 35.63102 ] } },
{ "type": "Feature", "properties": { "行政区域コード": "13103", "公共施設大分類": "16", "公共施設小分類": "16002", "学校分類": "16002", "名称": "港陽中学校", "所在地": "台場1-1-5", "管理者コード": 3.0 }, "geometry": { "type": "Point", "coordinates": [ 139.777236, 35.633842 ] } },
{ "type": "Feature", "properties": { "行政区域コード": "13103", "公共施設大分類": "16", "公共施設小分類": "16002", "学校分類": "16002", "名称": "高松中学校", "所在地": "高輪1-16-25", "管理者コード": 3.0 }, "geometry": { "type": "Point", "coordinates": [ 139.734104, 35.641463 ] } },
{ "type": "Feature", "properties": { "行政区域コード": "13103", "公共施設大分類": "16", "公共施設小分類": "16002", "学校分類": "16002", "名称": "高陵中学校", "所在地": "西麻布4-14-8", "管理者コード": 3.0 }, "geometry": { "type": "Point", "coordinates": [ 139.720216, 35.656794 ] } },
{ "type": "Feature", "properties": { "行政区域コード": "13103", "公共施設大分類": "16", "公共施設小分類": "16002", "学校分類": "16002", "名称": "高輪中学校", "所在地": "高輪2-1-32", "管理者コード": 4.0 }, "geometry": { "type": "Point", "coordinates": [ 139.736687, 35.638575 ] } },
{ "type": "Feature", "properties": { "行政区域コード": "13103", "公共施設大分類": "16", "公共施設小分類": "16002", "学校分類": "16002", "名称": "三田中学校", "所在地": "三田4-13-13", "管理者コード": 3.0 }, "geometry": { "type": "Point", "coordinates": [ 139.741005491514102, 35.645297602528629 ] } },
{ "type": "Feature", "properties": { "行政区域コード": "13103", "公共施設大分類": "16", "公共施設小分類": "16002", "学校分類": "16002", "名称": "山脇学園中学校", "所在地": "赤坂4-10-36", "管理者コード": 4.0 }, "geometry": { "type": "Point", "coordinates": [ 139.733158, 35.674793 ] } },
{ "type": "Feature", "properties": { "行政区域コード": "13103", "公共施設大分類": "16", "公共施設小分類": "16002", "学校分類": "16002", "名称": "芝中学校", "所在地": "芝公園3-5-37", "管理者コード": 4.0 }, "geometry": { "type": "Point", "coordinates": [ 139.746991, 35.660406 ] } },
{ "type": "Feature", "properties": { "行政区域コード": "13103", "公共施設大分類": "16", "公共施設小分類": "16002", "学校分類": "16002", "名称": "聖心女子学院中等科", "所在地": "白金4-11-1", "管理者コード": 4.0 }, "geometry": { "type": "Point", "coordinates": [ 139.726216, 35.642157 ] } },
{ "type": "Feature", "properties": { "行政区域コード": "13103", "公共施設大分類": "16", "公共施設小分類": "16002", "学校分類": "16002", "名称": "青山中学校", "所在地": "北青山1-1-9", "管理者コード": 3.0 }, "geometry": { "type": "Point", "coordinates": [ 139.722826, 35.673987 ] } },
{ "type": "Feature", "properties": { "行政区域コード": "13103", "公共施設大分類": "16", "公共施設小分類": "16002", "学校分類": "16002", "名称": "赤坂中学校", "所在地": "赤坂9-2-3", "管理者コード": 3.0 }, "geometry": { "type": "Point", "coordinates": [ 139.730714, 35.668349 ] } },
{ "type": "Feature", "properties": { "行政区域コード": "13103", "公共施設大分類": "16", "公共施設小分類": "16002", "学校分類": "16002", "名称": "朝日中学校", "所在地": "白金3-18-2", "管理者コード": 3.0 }, "geometry": { "type": "Point", "coordinates": [ 139.729132754242897, 35.644381342416672 ] } },
{ "type": "Feature", "properties": { "行政区域コード": "13103", "公共施設大分類": "16", "公共施設小分類": "16002", "学校分類": "16002", "名称": "東京女子学園中学校", "所在地": "芝4-1-30", "管理者コード": 4.0 }, "geometry": { "type": "Point", "coordinates": [ 139.749852, 35.649657 ] } },
{ "type": "Feature", "properties": { "行政区域コード": "13103", "公共施設大分類": "16", "公共施設小分類": "16002", "学校分類": "16002", "名称": "東洋英和女学院中学部", "所在地": "六本木5-14-40", "管理者コード": 4.0 }, "geometry": { "type": "Point", "coordinates": [ 139.73477, 35.659433 ] } },
{ "type": "Feature", "properties": { "行政区域コード": "13103", "公共施設大分類": "16", "公共施設小分類": "16002", "学校分類": "16002", "名称": "普連土学園中学校", "所在地": "三田4-14-16", "管理者コード": 4.0 }, "geometry": { "type": "Point", "coordinates": [ 139.741242, 35.646102 ] } },
{ "type": "Feature", "properties": { "行政区域コード": "13103", "公共施設大分類": "16", "公共施設小分類": "16002", "学校分類": "16002", "名称": "麻布中学校", "所在地": "元麻布2-3-29", "管理者コード": 4.0 }, "geometry": { "type": "Point", "coordinates": [ 139.727798, 35.6546 ] } },
{ "type": "Feature", "properties": { "行政区域コード": "13103", "公共施設大分類": "16", "公共施設小分類": "16002", "学校分類": "16002", "名称": "六本木中学校", "所在地": "六本木6-8-16", "管理者コード": 3.0 }, "geometry": { "type": "Point", "coordinates": [ 139.731829, 35.660834 ] } },
{ "type": "Feature", "properties": { "行政区域コード": "13103", "公共施設大分類": "16", "公共施設小分類": "16002", "学校分類": "16002", "名称": "頌栄女子学院中学校", "所在地": "白金台2-26-5", "管理者コード": 4.0 }, "geometry": { "type": "Point", "coordinates": [ 139.729938, 35.632297 ] } },
{ "type": "Feature", "properties": { "行政区域コード": "13103", "公共施設大分類": "16", "公共施設小分類": "99999", "学校分類": "16002", "名称": "東海大学付属高輪台高等学校中等部", "所在地": "高輪2-2-16", "管理者コード": 4.0 }, "geometry": { "type": "Point", "coordinates": [ 139.734988638205579, 35.638212557327186 ] } },
{ "type": "Feature", "properties": { "行政区域コード": "13103", "公共施設大分類": "16", "公共施設小分類": "16004", "学校分類": "16004", "名称": "慶應義塾女子高等学校", "所在地": "三田2-17-23", "管理者コード": 4.0 }, "geometry": { "type": "Point", "coordinates": [ 139.739798, 35.64824 ] } },
{ "type": "Feature", "properties": { "行政区域コード": "13103", "公共施設大分類": "16", "公共施設小分類": "16004", "学校分類": "16004", "名称": "広尾学園高等学校", "所在地": "南麻布5-1-14", "管理者コード": 4.0 }, "geometry": { "type": "Point", "coordinates": [ 139.722465, 35.654295 ] } },
{ "type": "Feature", "properties": { "行政区域コード": "13103", "公共施設大分類": "16", "公共施設小分類": "16004", "学校分類": "16004", "名称": "高輪高等学校", "所在地": "高輪2-1-32", "管理者コード": 4.0 }, "geometry": { "type": "Point", "coordinates": [ 139.736687, 35.638575 ] } },
{ "type": "Feature", "properties": { "行政区域コード": "13103", "公共施設大分類": "16", "公共施設小分類": "16004", "学校分類": "16004", "名称": "三田高等学校", "所在地": "三田1-4-46", "管理者コード": 2.0 }, "geometry": { "type": "Point", "coordinates": [ 139.743019, 35.652379 ] } },
{ "type": "Feature", "properties": { "行政区域コード": "13103", "公共施設大分類": "16", "公共施設小分類": "16004", "学校分類": "16004", "名称": "山脇学園高等学校", "所在地": "赤坂4-10-36", "管理者コード": 4.0 }, "geometry": { "type": "Point", "coordinates": [ 139.732464, 35.674237 ] } },
{ "type": "Feature", "properties": { "行政区域コード": "13103", "公共施設大分類": "16", "公共施設小分類": "16004", "学校分類": "16004", "名称": "芝高等学校", "所在地": "芝公園3-5-37", "管理者コード": 4.0 }, "geometry": { "type": "Point", "coordinates": [ 139.746991, 35.660406 ] } },
{ "type": "Feature", "properties": { "行政区域コード": "13103", "公共施設大分類": "16", "公共施設小分類": "16004", "学校分類": "16004", "名称": "芝商業高等学校", "所在地": "海岸1-8-25", "管理者コード": 2.0 }, "geometry": { "type": "Point", "coordinates": [ 139.761073, 35.65649 ] } },
{ "type": "Feature", "properties": { "行政区域コード": "13103", "公共施設大分類": "16", "公共施設小分類": "16004", "学校分類": "16004", "名称": "正則高等学校", "所在地": "芝公園3-1-36", "管理者コード": 4.0 }, "geometry": { "type": "Point", "coordinates": [ 139.747796, 35.661128 ] } },
{ "type": "Feature", "properties": { "行政区域コード": "13103", "公共施設大分類": "16", "公共施設小分類": "16004", "学校分類": "16004", "名称": "聖心女子学院高等科", "所在地": "白金4-11-1", "管理者コード": 4.0 }, "geometry": { "type": "Point", "coordinates": [ 139.726216, 35.642157 ] } },
{ "type": "Feature", "properties": { "行政区域コード": "13103", "公共施設大分類": "16", "公共施設小分類": "16004", "学校分類": "16004", "名称": "東海大学付属高輪台高等学校", "所在地": "高輪2-2-16", "管理者コード": 4.0 }, "geometry": { "type": "Point", "coordinates": [ 139.734993, 35.638213 ] } },
{ "type": "Feature", "properties": { "行政区域コード": "13103", "公共施設大分類": "16", "公共施設小分類": "16004", "学校分類": "16004", "名称": "東京工業大学附属科学技術高等学校", "所在地": "芝浦3-3-6", "管理者コード": 1.0 }, "geometry": { "type": "Point", "coordinates": [ 139.74788, 35.64438 ] } },
{ "type": "Feature", "properties": { "行政区域コード": "13103", "公共施設大分類": "16", "公共施設小分類": "16004", "学校分類": "16004", "名称": "東京女子学園高等学校", "所在地": "芝4-1-30", "管理者コード": 4.0 }, "geometry": { "type": "Point", "coordinates": [ 139.749852, 35.649657 ] } },
{ "type": "Feature", "properties": { "行政区域コード": "13103", "公共施設大分類": "16", "公共施設小分類": "16004", "学校分類": "16004", "名称": "東洋英和女学院高等部", "所在地": "六本木5-14-40", "管理者コード": 4.0 }, "geometry": { "type": "Point", "coordinates": [ 139.73477, 35.659433 ] } },
{ "type": "Feature", "properties": { "行政区域コード": "13103", "公共施設大分類": "16", "公共施設小分類": "16004", "学校分類": "16004", "名称": "普連土学園高等学校", "所在地": "三田4-14-16", "管理者コード": 4.0 }, "geometry": { "type": "Point", "coordinates": [ 139.741242, 35.646102 ] } },
{ "type": "Feature", "properties": { "行政区域コード": "13103", "公共施設大分類": "16", "公共施設小分類": "16004", "学校分類": "16004", "名称": "麻布高等学校", "所在地": "元麻布2-3-29", "管理者コード": 4.0 }, "geometry": { "type": "Point", "coordinates": [ 139.727798, 35.6546 ] } },
{ "type": "Feature", "properties": { "行政区域コード": "13103", "公共施設大分類": "16", "公共施設小分類": "16004", "学校分類": "16004", "名称": "明治学院高等学校", "所在地": "白金台1-2-37", "管理者コード": 4.0 }, "geometry": { "type": "Point", "coordinates": [ 139.73016, 35.636519 ] } },
{ "type": "Feature", "properties": { "行政区域コード": "13103", "公共施設大分類": "16", "公共施設小分類": "16004", "学校分類": "16004", "名称": "六本木高等学校", "所在地": "六本木6-16-36", "管理者コード": 2.0 }, "geometry": { "type": "Point", "coordinates": [ 139.731159, 35.657683 ] } },
{ "type": "Feature", "properties": { "行政区域コード": "13103", "公共施設大分類": "16", "公共施設小分類": "16004", "学校分類": "16004", "名称": "頌栄女子学院高等学校", "所在地": "白金台2-26-5", "管理者コード": 4.0 }, "geometry": { "type": "Point", "coordinates": [ 139.729938, 35.632297 ] } },
{ "type": "Feature", "properties": { "行政区域コード": "13103", "公共施設大分類": "16", "公共施設小分類": "16006", "学校分類": "16006", "名称": "戸板女子短期大学", "所在地": "芝2-21-17", "管理者コード": 4.0 }, "geometry": { "type": "Point", "coordinates": [ 139.749601, 35.65081 ] } },
{ "type": "Feature", "properties": { "行政区域コード": "13103", "公共施設大分類": "16", "公共施設小分類": "16007", "学校分類": "16007", "名称": "慶應義塾大学", "所在地": "三田2-15-45", "管理者コード": 4.0 }, "geometry": { "type": "Point", "coordinates": [ 139.741992, 35.64924 ] } },
{ "type": "Feature", "properties": { "行政区域コード": "13103", "公共施設大分類": "16", "公共施設小分類": "16007", "学校分類": "16007", "名称": "政策研究大学院大学", "所在地": "六本木7-22-1", "管理者コード": 1.0 }, "geometry": { "type": "Point", "coordinates": [ 139.727288, 35.663698 ] } },
{ "type": "Feature", "properties": { "行政区域コード": "13103", "公共施設大分類": "16", "公共施設小分類": "16007", "学校分類": "16007", "名称": "東京海洋大学", "所在地": "港南4-5-7", "管理者コード": 1.0 }, "geometry": { "type": "Point", "coordinates": [ 139.746881, 35.626354 ] } },
{ "type": "Feature", "properties": { "行政区域コード": "13103", "公共施設大分類": "16", "公共施設小分類": "16007", "学校分類": "16007", "名称": "東京慈恵会医科大学", "所在地": "西新橋3-25-8", "管理者コード": 4.0 }, "geometry": { "type": "Point", "coordinates": [ 139.750852, 35.662933 ] } },
{ "type": "Feature", "properties": { "行政区域コード": "13103", "公共施設大分類": "16", "公共施設小分類": "16007", "学校分類": "16007", "名称": "北里大学", "所在地": "白金5-9-1", "管理者コード": 4.0 }, "geometry": { "type": "Point", "coordinates": [ 139.726104, 35.645157 ] } },
{ "type": "Feature", "properties": { "行政区域コード": "13103", "公共施設大分類": "16", "公共施設小分類": "16007", "学校分類": "16007", "名称": "明治学院大学", "所在地": "白金台1-2-37", "管理者コード": 4.0 }, "geometry": { "type": "Point", "coordinates": [ 139.730743, 35.637491 ] } },
{ "type": "Feature", "properties": { "行政区域コード": "13103", "公共施設大分類": "16", "公共施設小分類": "99999", "学校分類": "16007", "名称": "事業構想大学院大学", "所在地": "南青山3-13-16", "管理者コード": 4.0 }, "geometry": { "type": "Point", "coordinates": [ 139.713655, 35.665363 ] } },
{ "type": "Feature", "properties": { "行政区域コード": "13103", "公共施設大分類": "16", "公共施設小分類": "99999", "学校分類": "16007", "名称": "ハリウッド大学院大学", "所在地": "六本木6-4-1", "管理者コード": 4.0 }, "geometry": { "type": "Point", "coordinates": [ 139.730107, 35.661328 ] } },
{ "type": "Feature", "properties": { "行政区域コード": "13103", "公共施設大分類": "16", "公共施設小分類": "99999", "学校分類": "16007", "名称": "慶應義塾大学", "所在地": "芝公園1-5-30", "管理者コード": 4.0 }, "geometry": { "type": "Point", "coordinates": [ 139.751638, 35.658829 ] } },
{ "type": "Feature", "properties": { "行政区域コード": "13103", "公共施設大分類": "16", "公共施設小分類": "99999", "学校分類": "16007", "名称": "芝浦工業大学", "所在地": "芝浦3-9-14", "管理者コード": 4.0 }, "geometry": { "type": "Point", "coordinates": [ 139.749688058018677, 35.643421288143706 ] } },
{ "type": "Feature", "properties": { "行政区域コード": "13103", "公共施設大分類": "16", "公共施設小分類": "16010", "学校分類": "16012", "名称": "愛育養護学校", "所在地": "南麻布5-6-8", "管理者コード": 4.0 }, "geometry": { "type": "Point", "coordinates": [ 139.727132, 35.65335 ] } },
{ "type": "Feature", "properties": { "行政区域コード": "13103", "公共施設大分類": "16", "公共施設小分類": "16010", "学校分類": "16012", "名称": "港特別支援学校", "所在地": "港南3-9-45", "管理者コード": 2.0 }, "geometry": { "type": "Point", "coordinates": [ 139.746714, 35.632131 ] } },
{ "type": "Feature", "properties": { "行政区域コード": "13103", "公共施設大分類": "16", "公共施設小分類": "99999", "学校分類": "16012", "名称": "青山特別支援学校", "所在地": "港南3-9-45", "管理者コード": 2.0 }, "geometry": { "type": "Point", "coordinates": [ 139.7511, 35.632377 ] } },
{ "type": "Feature", "properties": { "行政区域コード": "13104", "公共施設大分類": "16", "公共施設小分類": "16001", "学校分類": "16001", "名称": "愛日小学校", "所在地": "北町26", "管理者コード": 3.0 }, "geometry": { "type": "Point", "coordinates": [ 139.734046, 35.699734 ] } },
{ "type": "Feature", "properties": { "行政区域コード": "13104", "公共施設大分類": "16", "公共施設小分類": "16001", "学校分類": "16001", "名称": "花園小学校", "所在地": "新宿1-22-1", "管理者コード": 3.0 }, "geometry": { "type": "Point", "coordinates": [ 139.713548, 35.689652 ] } },
{ "type": "Feature", "properties": { "行政区域コード": "13104", "公共施設大分類": "16", "公共施設小分類": "16001", "学校分類": "16001", "名称": "学習院初等科", "所在地": "若葉1-23-1", "管理者コード": 4.0 }, "geometry": { "type": "Point", "coordinates": [ 139.726994, 35.68249 ] } },
{ "type": "Feature", "properties": { "行政区域コード": "13104", "公共施設大分類": "16", "公共施設小分類": "16001", "学校分類": "16001", "名称": "牛込仲之小学校", "所在地": "市谷仲之町4-33", "管理者コード": 3.0 }, "geometry": { "type": "Point", "coordinates": [ 139.723686, 35.695846 ] } },
{ "type": "Feature", "properties": { "行政区域コード": "13104", "公共施設大分類": "16", "公共施設小分類": "16001", "学校分類": "16001", "名称": "戸山小学校", "所在地": "百人町2-1-38", "管理者コード": 3.0 }, "geometry": { "type": "Point", "coordinates": [ 139.702021, 35.704261 ] } },
{ "type": "Feature", "properties": { "行政区域コード": "13104", "公共施設大分類": "16", "公共施設小分類": "16001", "学校分類": "16001", "名称": "戸塚第一小学校", "所在地": "西早稲田3-10-12", "管理者コード": 3.0 }, "geometry": { "type": "Point", "coordinates": [ 139.714689, 35.711219 ] } },
{ "type": "Feature", "properties": { "行政区域コード": "13104", "公共施設大分類": "16", "公共施設小分類": "16001", "学校分類": "16001", "名称": "戸塚第三小学校", "所在地": "高田馬場3-18-21", "管理者コード": 3.0 }, "geometry": { "type": "Point", "coordinates": [ 139.697604, 35.714843 ] } },
{ "type": "Feature", "properties": { "行政区域コード": "13104", "公共施設大分類": "16", "公共施設小分類": "16001", "学校分類": "16001", "名称": "戸塚第二小学校", "所在地": "高田馬場1-25-21", "管理者コード": 3.0 }, "geometry": { "type": "Point", "coordinates": [ 139.705881, 35.712593 ] } },
{ "type": "Feature", "properties": { "行政区域コード": "13104", "公共施設大分類": "16", "公共施設小分類": "16001", "学校分類": "16001", "名称": "江戸川小学校", "所在地": "水道町1-28", "管理者コード": 3.0 }, "geometry": { "type": "Point", "coordinates": [ 139.736351, 35.707095 ] } },
{ "type": "Feature", "properties": { "行政区域コード": "13104", "公共施設大分類": "16", "公共施設小分類": "16001", "学校分類": "16001", "名称": "四谷第六小学校", "所在地": "大京町30", "管理者コード": 3.0 }, "geometry": { "type": "Point", "coordinates": [ 139.71566, 35.681653 ] } },
{ "type": "Feature", "properties": { "行政区域コード": "13104", "公共施設大分類": "16", "公共施設小分類": "16001", "学校分類": "16001", "名称": "市谷小学校", "所在地": "市谷山伏町1-3", "管理者コード": 3.0 }, "geometry": { "type": "Point", "coordinates": [ 139.728741, 35.699818 ] } },
{ "type": "Feature", "properties": { "行政区域コード": "13104", "公共施設大分類": "16", "公共施設小分類": "16001", "学校分類": "16001", "名称": "西戸山小学校", "所在地": "百人町4-2-1", "管理者コード": 3.0 }, "geometry": { "type": "Point", "coordinates": [ 139.699604, 35.708094 ] } },
{ "type": "Feature", "properties": { "行政区域コード": "13104", "公共施設大分類": "16", "公共施設小分類": "16001", "学校分類": "16001", "名称": "西新宿小学校", "所在地": "西新宿4-35-5", "管理者コード": 3.0 }, "geometry": { "type": "Point", "coordinates": [ 139.687662, 35.686374 ] } },
{ "type": "Feature", "properties": { "行政区域コード": "13104", "公共施設大分類": "16", "公共施設小分類": "16001", "学校分類": "16001", "名称": "早稲田小学校", "所在地": "早稲田南町25", "管理者コード": 3.0 }, "geometry": { "type": "Point", "coordinates": [ 139.723436, 35.703956 ] } },
{ "type": "Feature", "properties": { "行政区域コード": "13104", "公共施設大分類": "16", "公共施設小分類": "16001", "学校分類": "16001", "名称": "大久保小学校", "所在地": "大久保1-1-21", "管理者コード": 3.0 }, "geometry": { "type": "Point", "coordinates": [ 139.70591, 35.69965 ] } },
{ "type": "Feature", "properties": { "行政区域コード": "13104", "公共施設大分類": "16", "公共施設小分類": "16001", "学校分類": "16001", "名称": "津久戸小学校", "所在地": "津久戸町2-2", "管理者コード": 3.0 }, "geometry": { "type": "Point", "coordinates": [ 139.742017, 35.702957 ] } },
{ "type": "Feature", "properties": { "行政区域コード": "13104", "公共施設大分類": "16", "公共施設小分類": "16001", "学校分類": "16001", "名称": "鶴巻小学校", "所在地": "早稲田鶴巻町140", "管理者コード": 3.0 }, "geometry": { "type": "Point", "coordinates": [ 139.725019, 35.708594 ] } },
{ "type": "Feature", "properties": { "行政区域コード": "13104", "公共施設大分類": "16", "公共施設小分類": "16001", "学校分類": "16001", "名称": "天神小学校", "所在地": "新宿6-14-2", "管理者コード": 3.0 }, "geometry": { "type": "Point", "coordinates": [ 139.710021, 35.695623 ] } },
{ "type": "Feature", "properties": { "行政区域コード": "13104", "公共施設大分類": "16", "公共施設小分類": "16001", "学校分類": "16001", "名称": "東戸山小学校", "所在地": "戸山2-34-2", "管理者コード": 3.0 }, "geometry": { "type": "Point", "coordinates": [ 139.71152, 35.702539 ] } },
{ "type": "Feature", "properties": { "行政区域コード": "13104", "公共施設大分類": "16", "公共施設小分類": "16001", "学校分類": "16001", "名称": "柏木小学校", "所在地": "北新宿2-11-1", "管理者コード": 3.0 }, "geometry": { "type": "Point", "coordinates": [ 139.6893, 35.700511 ] } },
{ "type": "Feature", "properties": { "行政区域コード": "13104", "公共施設大分類": "16", "公共施設小分類": "16001", "学校分類": "16001", "名称": "富久小学校", "所在地": "富久町7-24", "管理者コード": 3.0 }, "geometry": { "type": "Point", "coordinates": [ 139.716715, 35.692374 ] } },
{ "type": "Feature", "properties": { "行政区域コード": "13104", "公共施設大分類": "16", "公共施設小分類": "16001", "学校分類": "16001", "名称": "余丁町小学校", "所在地": "若松町13-1", "管理者コード": 3.0 }, "geometry": { "type": "Point", "coordinates": [ 139.715813, 35.699241 ] } },
{ "type": "Feature", "properties": { "行政区域コード": "13104", "公共施設大分類": "16", "公共施設小分類": "16001", "学校分類": "16001", "名称": "淀橋第四小学校", "所在地": "北新宿3-17-1", "管理者コード": 3.0 }, "geometry": { "type": "Point", "coordinates": [ 139.691105, 35.704094 ] } },
{ "type": "Feature", "properties": { "行政区域コード": "13104", "公共施設大分類": "16", "公共施設小分類": "16001", "学校分類": "16001", "名称": "落合第一小学校", "所在地": "中落合2-13-27", "管理者コード": 3.0 }, "geometry": { "type": "Point", "coordinates": [ 139.691521, 35.719537 ] } },
{ "type": "Feature", "properties": { "行政区域コード": "13104", "公共施設大分類": "16", "公共施設小分類": "16001", "学校分類": "16001", "名称": "落合第五小学校", "所在地": "上落合3-1-6", "管理者コード": 3.0 }, "geometry": { "type": "Point", "coordinates": [ 139.685744, 35.714648 ] } },
{ "type": "Feature", "properties": { "行政区域コード": "13104", "公共施設大分類": "16", "公共施設小分類": "16001", "学校分類": "16001", "名称": "落合第三小学校", "所在地": "西落合1-12-20", "管理者コード": 3.0 }, "geometry": { "type": "Point", "coordinates": [ 139.68255, 35.720758 ] } },
{ "type": "Feature", "properties": { "行政区域コード": "13104", "公共施設大分類": "16", "公共施設小分類": "16001", "学校分類": "16001", "名称": "落合第四小学校", "所在地": "下落合2-9-34", "管理者コード": 3.0 }, "geometry": { "type": "Point", "coordinates": [ 139.700159, 35.718315 ] } },
{ "type": "Feature", "properties": { "行政区域コード": "13104", "公共施設大分類": "16", "公共施設小分類": "16001", "学校分類": "16001", "名称": "落合第二小学校", "所在地": "上落合2-10-23", "管理者コード": 3.0 }, "geometry": { "type": "Point", "coordinates": [ 139.689188, 35.712954 ] } },
{ "type": "Feature", "properties": { "行政区域コード": "13104", "公共施設大分類": "16", "公共施設小分類": "16001", "学校分類": "16001", "名称": "落合第六小学校", "所在地": "西落合4-11-21", "管理者コード": 3.0 }, "geometry": { "type": "Point", "coordinates": [ 139.678522, 35.727285 ] } },
{ "type": "Feature", "properties": { "行政区域コード": "13104", "公共施設大分類": "16", "公共施設小分類": "99999", "学校分類": "16001", "名称": "四谷小学校", "所在地": "四谷2-6", "管理者コード": 3.0 }, "geometry": { "type": "Point", "coordinates": [ 139.724884667214923, 35.686541409521467 ] } },
{ "type": "Feature", "properties": { "行政区域コード": "13104", "公共施設大分類": "16", "公共施設小分類": "16002", "学校分類": "16002", "名称": "海城中学校", "所在地": "大久保3-6-1", "管理者コード": 4.0 }, "geometry": { "type": "Point", "coordinates": [ 139.702465, 35.705039 ] } },
{ "type": "Feature", "properties": { "行政区域コード": "13104", "公共施設大分類": "16", "公共施設小分類": "16002", "学校分類": "16002", "名称": "学習院女子中等科", "所在地": "戸山3-20-1", "管理者コード": 4.0 }, "geometry": { "type": "Point", "coordinates": [ 139.71402, 35.707483 ] } },
{ "type": "Feature", "properties": { "行政区域コード": "13104", "公共施設大分類": "16", "公共施設小分類": "16002", "学校分類": "16002", "名称": "牛込第一中学校", "所在地": "北山吹町4-1", "管理者コード": 3.0 }, "geometry": { "type": "Point", "coordinates": [ 139.730444129719672, 35.700373238048755 ] } },
{ "type": "Feature", "properties": { "行政区域コード": "13104", "公共施設大分類": "16", "公共施設小分類": "16002", "学校分類": "16002", "名称": "牛込第三中学校", "所在地": "市谷加賀町1-3-1", "管理者コード": 3.0 }, "geometry": { "type": "Point", "coordinates": [ 139.731685, 35.697679 ] } },
{ "type": "Feature", "properties": { "行政区域コード": "13104", "公共施設大分類": "16", "公共施設小分類": "16002", "学校分類": "16002", "名称": "牛込第二中学校", "所在地": "喜久井町20", "管理者コード": 3.0 }, "geometry": { "type": "Point", "coordinates": [ 139.723102, 35.704484 ] } },
{ "type": "Feature", "properties": { "行政区域コード": "13104", "公共施設大分類": "16", "公共施設小分類": "16002", "学校分類": "16002", "名称": "四谷中学校", "所在地": "四谷1-12", "管理者コード": 3.0 }, "geometry": { "type": "Point", "coordinates": [ 139.728519, 35.684486 ] } },
{ "type": "Feature", "properties": { "行政区域コード": "13104", "公共施設大分類": "16", "公共施設小分類": "16002", "学校分類": "16002", "名称": "新宿中学校", "所在地": "新宿6-15-22", "管理者コード": 3.0 }, "geometry": { "type": "Point", "coordinates": [ 139.710841491514117, 35.695405254854748 ] } },
{ "type": "Feature", "properties": { "行政区域コード": "13104", "公共施設大分類": "16", "公共施設小分類": "16002", "学校分類": "16002", "名称": "成女学園中学校", "所在地": "富久町7-30", "管理者コード": 4.0 }, "geometry": { "type": "Point", "coordinates": [ 139.717326, 35.691624 ] } },
{ "type": "Feature", "properties": { "行政区域コード": "13104", "公共施設大分類": "16", "公共施設小分類": "16002", "学校分類": "16002", "名称": "成城中学校", "所在地": "原町3-87", "管理者コード": 4.0 }, "geometry": { "type": "Point", "coordinates": [ 139.723103, 35.698595 ] } },
{ "type": "Feature", "properties": { "行政区域コード": "13104", "公共施設大分類": "16", "公共施設小分類": "16002", "学校分類": "16002", "名称": "西新宿中学校", "所在地": "西新宿8-2-44", "管理者コード": 3.0 }, "geometry": { "type": "Point", "coordinates": [ 139.694819, 35.695942 ] } },
{ "type": "Feature", "properties": { "行政区域コード": "13104", "公共施設大分類": "16", "公共施設小分類": "16002", "学校分類": "16002", "名称": "西早稲田中学校", "所在地": "戸山3-20-2", "管理者コード": 3.0 }, "geometry": { "type": "Point", "coordinates": [ 139.710134955663591, 35.708016197856374 ] } },
{ "type": "Feature", "properties": { "行政区域コード": "13104", "公共施設大分類": "16", "公共施設小分類": "16002", "学校分類": "16002", "名称": "早稲田中学校", "所在地": "馬場下町62", "管理者コード": 4.0 }, "geometry": { "type": "Point", "coordinates": [ 139.719603, 35.706594 ] } },
{ "type": "Feature", "properties": { "行政区域コード": "13104", "公共施設大分類": "16", "公共施設小分類": "16002", "学校分類": "16002", "名称": "目白研心中学校", "所在地": "中落合4-31-1", "管理者コード": 4.0 }, "geometry": { "type": "Point", "coordinates": [ 139.680994, 35.71812 ] } },
{ "type": "Feature", "properties": { "行政区域コード": "13104", "公共施設大分類": "16", "公共施設小分類": "16002", "学校分類": "16002", "名称": "落合第二中学校", "所在地": "西落合1-6-5", "管理者コード": 3.0 }, "geometry": { "type": "Point", "coordinates": [ 139.684438, 35.721453 ] } },
{ "type": "Feature", "properties": { "行政区域コード": "13104", "公共施設大分類": "16", "公共施設小分類": "16002", "学校分類": "16002", "名称": "落合中学校", "所在地": "下落合2-24-6", "管理者コード": 3.0 }, "geometry": { "type": "Point", "coordinates": [ 139.700243, 35.718787 ] } },
{ "type": "Feature", "properties": { "行政区域コード": "13104", "公共施設大分類": "16", "公共施設小分類": "99999", "学校分類": "16002", "名称": "新宿西戸山中学校", "所在地": "百人町4-3-1", "管理者コード": 3.0 }, "geometry": { "type": "Point", "coordinates": [ 139.700868464149494, 35.70854984776004 ] } },
{ "type": "Feature", "properties": { "行政区域コード": "13104", "公共施設大分類": "16", "公共施設小分類": "16004", "学校分類": "16004", "名称": "海城高等学校", "所在地": "大久保3-6-1", "管理者コード": 4.0 }, "geometry": { "type": "Point", "coordinates": [ 139.702465, 35.705039 ] } },
{ "type": "Feature", "properties": { "行政区域コード": "13104", "公共施設大分類": "16", "公共施設小分類": "16004", "学校分類": "16004", "名称": "学習院女子高等科", "所在地": "戸山3-20-1", "管理者コード": 4.0 }, "geometry": { "type": "Point", "coordinates": [ 139.714075, 35.707261 ] } },
{ "type": "Feature", "properties": { "行政区域コード": "13104", "公共施設大分類": "16", "公共施設小分類": "16004", "学校分類": "16004", "名称": "戸山高等学校", "所在地": "戸山3-19-1", "管理者コード": 2.0 }, "geometry": { "type": "Point", "coordinates": [ 139.710853, 35.707122 ] } },
{ "type": "Feature", "properties": { "行政区域コード": "13104", "公共施設大分類": "16", "公共施設小分類": "16004", "学校分類": "16004", "名称": "新宿高等学校", "所在地": "内藤町11-4", "管理者コード": 2.0 }, "geometry": { "type": "Point", "coordinates": [ 139.705121, 35.688478 ] } },
{ "type": "Feature", "properties": { "行政区域コード": "13104", "公共施設大分類": "16", "公共施設小分類": "16004", "学校分類": "16004", "名称": "新宿山吹高等学校", "所在地": "山吹町81", "管理者コード": 2.0 }, "geometry": { "type": "Point", "coordinates": [ 139.728352, 35.706984 ] } },
{ "type": "Feature", "properties": { "行政区域コード": "13104", "公共施設大分類": "16", "公共施設小分類": "16004", "学校分類": "16004", "名称": "成女高等学校", "所在地": "富久町7-30", "管理者コード": 4.0 }, "geometry": { "type": "Point", "coordinates": [ 139.717326, 35.691624 ] } },
{ "type": "Feature", "properties": { "行政区域コード": "13104", "公共施設大分類": "16", "公共施設小分類": "16004", "学校分類": "16004", "名称": "成城高等学校", "所在地": "原町3-87", "管理者コード": 4.0 }, "geometry": { "type": "Point", "coordinates": [ 139.723103, 35.698595 ] } },
{ "type": "Feature", "properties": { "行政区域コード": "13104", "公共施設大分類": "16", "公共施設小分類": "16004", "学校分類": "16004", "名称": "早稲田高等学校", "所在地": "馬場下町62", "管理者コード": 4.0 }, "geometry": { "type": "Point", "coordinates": [ 139.720575, 35.707178 ] } },
{ "type": "Feature", "properties": { "行政区域コード": "13104", "公共施設大分類": "16", "公共施設小分類": "16004", "学校分類": "16004", "名称": "保善高等学校", "所在地": "大久保3-6-2", "管理者コード": 4.0 }, "geometry": { "type": "Point", "coordinates": [ 139.703187, 35.706233 ] } },
{ "type": "Feature", "properties": { "行政区域コード": "13104", "公共施設大分類": "16", "公共施設小分類": "16004", "学校分類": "16004", "名称": "目白研心高等学校", "所在地": "中落合4-31-1", "管理者コード": 4.0 }, "geometry": { "type": "Point", "coordinates": [ 139.680994, 35.71812 ] } },
{ "type": "Feature", "properties": { "行政区域コード": "13104", "公共施設大分類": "16", "公共施設小分類": "99999", "学校分類": "16004", "名称": "総合芸術高等学校", "所在地": "富久町22-1", "管理者コード": 2.0 }, "geometry": { "type": "Point", "coordinates": [ 139.716085580186899, 35.693762772780822 ] } },
{ "type": "Feature", "properties": { "行政区域コード": "13104", "公共施設大分類": "16", "公共施設小分類": "16006", "学校分類": "16006", "名称": "東京富士大学短期大学部", "所在地": "下落合1-7-7", "管理者コード": 4.0 }, "geometry": { "type": "Point", "coordinates": [ 139.701048, 35.715315 ] } },
{ "type": "Feature", "properties": { "行政区域コード": "13104", "公共施設大分類": "16", "公共施設小分類": "16006", "学校分類": "16006", "名称": "目白大学短期大学部", "所在地": "中落合4-31-1", "管理者コード": 4.0 }, "geometry": { "type": "Point", "coordinates": [ 139.680133, 35.717564 ] } },
{ "type": "Feature", "properties": { "行政区域コード": "13104", "公共施設大分類": "16", "公共施設小分類": "16007", "学校分類": "16007", "名称": "学習院女子大学", "所在地": "戸山3-20-1", "管理者コード": 4.0 }, "geometry": { "type": "Point", "coordinates": [ 139.713567, 35.706879 ] } },
{ "type": "Feature", "properties": { "行政区域コード": "13104", "公共施設大分類": "16", "公共施設小分類": "16007", "学校分類": "16007", "名称": "慶應義塾大学", "所在地": "信濃町35", "管理者コード": 4.0 }, "geometry": { "type": "Point", "coordinates": [ 139.717604, 35.682542 ] } },
{ "type": "Feature", "properties": { "行政区域コード": "13104", "公共施設大分類": "16", "公共施設小分類": "16007", "学校分類": "16007", "名称": "工学院大学", "所在地": "西新宿1-24-2", "管理者コード": 4.0 }, "geometry": { "type": "Point", "coordinates": [ 139.695578, 35.690512 ] } },
{ "type": "Feature", "properties": { "行政区域コード": "13104", "公共施設大分類": "16", "公共施設小分類": "16007", "学校分類": "16007", "名称": "早稲田大学", "所在地": "戸山1-24-1", "管理者コード": 4.0 }, "geometry": { "type": "Point", "coordinates": [ 139.718156, 35.70523 ] } },
{ "type": "Feature", "properties": { "行政区域コード": "13104", "公共施設大分類": "16", "公共施設小分類": "16007", "学校分類": "16007", "名称": "早稲田大学", "所在地": "西早稲田1-6-1", "管理者コード": 4.0 }, "geometry": { "type": "Point", "coordinates": [ 139.718741, 35.709761 ] } },
{ "type": "Feature", "properties": { "行政区域コード": "13104", "公共施設大分類": "16", "公共施設小分類": "16007", "学校分類": "16007", "名称": "早稲田大学", "所在地": "大久保3-4-1", "管理者コード": 4.0 }, "geometry": { "type": "Point", "coordinates": [ 139.70602, 35.706039 ] } },
{ "type": "Feature", "properties": { "行政区域コード": "13104", "公共施設大分類": "16", "公共施設小分類": "16007", "学校分類": "16007", "名称": "東京医科大学", "所在地": "新宿6-1-1", "管理者コード": 4.0 }, "geometry": { "type": "Point", "coordinates": [ 139.712048, 35.693679 ] } },
{ "type": "Feature", "properties": { "行政区域コード": "13104", "公共施設大分類": "16", "公共施設小分類": "16007", "学校分類": "16007", "名称": "東京女子医科大学", "所在地": "河田町8-1", "管理者コード": 4.0 }, "geometry": { "type": "Point", "coordinates": [ 139.72077, 35.698012 ] } },
{ "type": "Feature", "properties": { "行政区域コード": "13104", "公共施設大分類": "16", "公共施設小分類": "16007", "学校分類": "16007", "名称": "東京富士大学", "所在地": "下落合1-7-7", "管理者コード": 4.0 }, "geometry": { "type": "Point", "coordinates": [ 139.70097, 35.715254 ] } },
{ "type": "Feature", "properties": { "行政区域コード": "13104", "公共施設大分類": "16", "公共施設小分類": "16007", "学校分類": "16007", "名称": "東京理科大学", "所在地": "神楽坂1-3", "管理者コード": 4.0 }, "geometry": { "type": "Point", "coordinates": [ 139.740823, 35.698929 ] } },
{ "type": "Feature", "properties": { "行政区域コード": "13104", "公共施設大分類": "16", "公共施設小分類": "16007", "学校分類": "16007", "名称": "目白大学", "所在地": "中落合4-31-1", "管理者コード": 4.0 }, "geometry": { "type": "Point", "coordinates": [ 139.680317, 35.71725 ] } },
{ "type": "Feature", "properties": { "行政区域コード": "13104", "公共施設大分類": "16", "公共施設小分類": "99999", "学校分類": "16007", "名称": "宝塚大学", "所在地": "西新宿7-11-1", "管理者コード": 4.0 }, "geometry": { "type": "Point", "coordinates": [ 139.697323709906556, 35.693759393923479 ] } },
{ "type": "Feature", "properties": { "行政区域コード": "13104", "公共施設大分類": "16", "公共施設小分類": "99999", "学校分類": "16007", "名称": "早稲田大学", "所在地": "戸塚町1-104", "管理者コード": 4.0 }, "geometry": { "type": "Point", "coordinates": [ 139.722850012037554, 35.709184607702866 ] } },
{ "type": "Feature", "properties": { "行政区域コード": "13104", "公共施設大分類": "16", "公共施設小分類": "16010", "学校分類": "16012", "名称": "新宿養護学校", "所在地": "西新宿4-20-11", "管理者コード": 3.0 }, "geometry": { "type": "Point", "coordinates": [ 139.686162, 35.68829 ] } },
{ "type": "Feature", "properties": { "行政区域コード": "13105", "公共施設大分類": "16", "公共施設小分類": "16001", "学校分類": "16001", "名称": "お茶の水女子大学附属小学校", "所在地": "大塚2-1-1", "管理者コード": 1.0 }, "geometry": { "type": "Point", "coordinates": [ 139.733351, 35.719066 ] } },
{ "type": "Feature", "properties": { "行政区域コード": "13105", "公共施設大分類": "16", "公共施設小分類": "16001", "学校分類": "16001", "名称": "駕籠町小学校", "所在地": "本駒込2-29-6", "管理者コード": 3.0 }, "geometry": { "type": "Point", "coordinates": [ 139.745905, 35.728315 ] } },
{ "type": "Feature", "properties": { "行政区域コード": "13105", "公共施設大分類": "16", "公共施設小分類": "16001", "学校分類": "16001", "名称": "関口台町小学校", "所在地": "関口2-6-1", "管理者コード": 3.0 }, "geometry": { "type": "Point", "coordinates": [ 139.726852, 35.7119 ] } },
{ "type": "Feature", "properties": { "行政区域コード": "13105", "公共施設大分類": "16", "公共施設小分類": "16001", "学校分類": "16001", "名称": "金富小学校", "所在地": "春日2-6-15", "管理者コード": 3.0 }, "geometry": { "type": "Point", "coordinates": [ 139.741462, 35.710733 ] } },
{ "type": "Feature", "properties": { "行政区域コード": "13105", "公共施設大分類": "16", "公共施設小分類": "16001", "学校分類": "16001", "名称": "駒本小学校", "所在地": "向丘2-37-5", "管理者コード": 3.0 }, "geometry": { "type": "Point", "coordinates": [ 139.754321, 35.72451 ] } },
{ "type": "Feature", "properties": { "行政区域コード": "13105", "公共施設大分類": "16", "公共施設小分類": "16001", "学校分類": "16001", "名称": "窪町小学校", "所在地": "大塚3-2-3", "管理者コード": 3.0 }, "geometry": { "type": "Point", "coordinates": [ 139.735712, 35.718871 ] } },
{ "type": "Feature", "properties": { "行政区域コード": "13105", "公共施設大分類": "16", "公共施設小分類": "16001", "学校分類": "16001", "名称": "根津小学校", "所在地": "根津1-14-3", "管理者コード": 3.0 }, "geometry": { "type": "Point", "coordinates": [ 139.763182, 35.718567 ] } },
{ "type": "Feature", "properties": { "行政区域コード": "13105", "公共施設大分類": "16", "公共施設小分類": "16001", "学校分類": "16001", "名称": "指ケ谷小学校", "所在地": "白山2-28-4", "管理者コード": 3.0 }, "geometry": { "type": "Point", "coordinates": [ 139.750655, 35.717289 ] } },
{ "type": "Feature", "properties": { "行政区域コード": "13105", "公共施設大分類": "16", "公共施設小分類": "16001", "学校分類": "16001", "名称": "汐見小学校", "所在地": "千駄木2-19-23", "管理者コード": 3.0 }, "geometry": { "type": "Point", "coordinates": [ 139.760682, 35.723816 ] } },
{ "type": "Feature", "properties": { "行政区域コード": "13105", "公共施設大分類": "16", "公共施設小分類": "16001", "学校分類": "16001", "名称": "小日向台町小学校", "所在地": "小日向2-3-8", "管理者コード": 3.0 }, "geometry": { "type": "Point", "coordinates": [ 139.735244, 35.713129 ] } },
{ "type": "Feature", "properties": { "行政区域コード": "13105", "公共施設大分類": "16", "公共施設小分類": "16001", "学校分類": "16001", "名称": "昭和小学校", "所在地": "本駒込2-28-31", "管理者コード": 3.0 }, "geometry": { "type": "Point", "coordinates": [ 139.749294, 35.73162 ] } },
{ "type": "Feature", "properties": { "行政区域コード": "13105", "公共施設大分類": "16", "公共施設小分類": "16001", "学校分類": "16001", "名称": "誠之小学校", "所在地": "西片2-14-6", "管理者コード": 3.0 }, "geometry": { "type": "Point", "coordinates": [ 139.753849, 35.717844 ] } },
{ "type": "Feature", "properties": { "行政区域コード": "13105", "公共施設大分類": "16", "公共施設小分類": "16001", "学校分類": "16001", "名称": "青柳小学校", "所在地": "大塚5-40-18", "管理者コード": 3.0 }, "geometry": { "type": "Point", "coordinates": [ 139.724824, 35.72151 ] } },
{ "type": "Feature", "properties": { "行政区域コード": "13105", "公共施設大分類": "16", "公共施設小分類": "16001", "学校分類": "16001", "名称": "千駄木小学校", "所在地": "千駄木5-44-2", "管理者コード": 3.0 }, "geometry": { "type": "Point", "coordinates": [ 139.759043, 35.729149 ] } },
{ "type": "Feature", "properties": { "行政区域コード": "13105", "公共施設大分類": "16", "公共施設小分類": "16001", "学校分類": "16001", "名称": "大塚小学校", "所在地": "大塚4-1-7", "管理者コード": 3.0 }, "geometry": { "type": "Point", "coordinates": [ 139.736517, 35.72376 ] } },
{ "type": "Feature", "properties": { "行政区域コード": "13105", "公共施設大分類": "16", "公共施設小分類": "16001", "学校分類": "16001", "名称": "筑波大学附属小学校", "所在地": "大塚3-29-1", "管理者コード": 1.0 }, "geometry": { "type": "Point", "coordinates": [ 139.736823, 35.721204 ] } },
{ "type": "Feature", "properties": { "行政区域コード": "13105", "公共施設大分類": "16", "公共施設小分類": "16001", "学校分類": "16001", "名称": "東京学芸大学附属竹早小学校", "所在地": "小石川4-2-1", "管理者コード": 1.0 }, "geometry": { "type": "Point", "coordinates": [ 139.743878, 35.714233 ] } },
{ "type": "Feature", "properties": { "行政区域コード": "13105", "公共施設大分類": "16", "公共施設小分類": "16001", "学校分類": "16001", "名称": "湯島小学校", "所在地": "湯島2-28-14", "管理者コード": 3.0 }, "geometry": { "type": "Point", "coordinates": [ 139.766432, 35.70654 ] } },
{ "type": "Feature", "properties": { "行政区域コード": "13105", "公共施設大分類": "16", "公共施設小分類": "16001", "学校分類": "16001", "名称": "日本女子大学附属豊明小学校", "所在地": "目白台1-16-7", "管理者コード": 4.0 }, "geometry": { "type": "Point", "coordinates": [ 139.718491, 35.715899 ] } },
{ "type": "Feature", "properties": { "行政区域コード": "13105", "公共施設大分類": "16", "公共施設小分類": "16001", "学校分類": "16001", "名称": "本郷小学校", "所在地": "本郷4-5-15", "管理者コード": 3.0 }, "geometry": { "type": "Point", "coordinates": [ 139.758321, 35.708095 ] } },
{ "type": "Feature", "properties": { "行政区域コード": "13105", "公共施設大分類": "16", "公共施設小分類": "16001", "学校分類": "16001", "名称": "明化小学校", "所在地": "千石1-13-9", "管理者コード": 3.0 }, "geometry": { "type": "Point", "coordinates": [ 139.744877, 35.724899 ] } },
{ "type": "Feature", "properties": { "行政区域コード": "13105", "公共施設大分類": "16", "公共施設小分類": "16001", "学校分類": "16001", "名称": "柳町小学校", "所在地": "小石川1-23-16", "管理者コード": 3.0 }, "geometry": { "type": "Point", "coordinates": [ 139.750211, 35.714317 ] } },
{ "type": "Feature", "properties": { "行政区域コード": "13105", "公共施設大分類": "16", "公共施設小分類": "16001", "学校分類": "16001", "名称": "林町小学校", "所在地": "千石2-36-3", "管理者コード": 3.0 }, "geometry": { "type": "Point", "coordinates": [ 139.741906, 35.72426 ] } },
{ "type": "Feature", "properties": { "行政区域コード": "13105", "公共施設大分類": "16", "公共施設小分類": "16001", "学校分類": "16001", "名称": "礫川小学校", "所在地": "小石川2-13-2", "管理者コード": 3.0 }, "geometry": { "type": "Point", "coordinates": [ 139.747822, 35.711011 ] } },
{ "type": "Feature", "properties": { "行政区域コード": "13105", "公共施設大分類": "16", "公共施設小分類": "16002", "学校分類": "16002", "名称": "お茶の水女子大学附属中学校", "所在地": "大塚2-1-1", "管理者コード": 1.0 }, "geometry": { "type": "Point", "coordinates": [ 139.731434, 35.719538 ] } },
{ "type": "Feature", "properties": { "行政区域コード": "13105", "公共施設大分類": "16", "公共施設小分類": "16002", "学校分類": "16002", "名称": "郁文館中学校", "所在地": "向丘2-19-1", "管理者コード": 4.0 }, "geometry": { "type": "Point", "coordinates": [ 139.757571, 35.721733 ] } },
{ "type": "Feature", "properties": { "行政区域コード": "13105", "公共施設大分類": "16", "公共施設小分類": "16002", "学校分類": "16002", "名称": "京華女子中学校", "所在地": "白山5-13-5", "管理者コード": 4.0 }, "geometry": { "type": "Point", "coordinates": [ 139.747488, 35.723649 ] } },
{ "type": "Feature", "properties": { "行政区域コード": "13105", "公共施設大分類": "16", "公共施設小分類": "16002", "学校分類": "16002", "名称": "京華中学校", "所在地": "白山5-6-6", "管理者コード": 4.0 }, "geometry": { "type": "Point", "coordinates": [ 139.749822, 35.721677 ] } },
{ "type": "Feature", "properties": { "行政区域コード": "13105", "公共施設大分類": "16", "公共施設小分類": "16002", "学校分類": "16002", "名称": "駒込中学校", "所在地": "千駄木5-6-25", "管理者コード": 4.0 }, "geometry": { "type": "Point", "coordinates": [ 139.756775, 35.725194 ] } },
{ "type": "Feature", "properties": { "行政区域コード": "13105", "公共施設大分類": "16", "公共施設小分類": "16002", "学校分類": "16002", "名称": "桜蔭中学校", "所在地": "本郷1-5-25", "管理者コード": 4.0 }, "geometry": { "type": "Point", "coordinates": [ 139.756599, 35.703679 ] } },
{ "type": "Feature", "properties": { "行政区域コード": "13105", "公共施設大分類": "16", "公共施設小分類": "16002", "学校分類": "16002", "名称": "淑徳ＳＣ中等部", "所在地": "小石川3-14-3", "管理者コード": 4.0 }, "geometry": { "type": "Point", "coordinates": [ 139.747766, 35.712567 ] } },
{ "type": "Feature", "properties": { "行政区域コード": "13105", "公共施設大分類": "16", "公共施設小分類": "16002", "学校分類": "16002", "名称": "跡見学園中学校", "所在地": "大塚1-5-9", "管理者コード": 4.0 }, "geometry": { "type": "Point", "coordinates": [ 139.734573, 35.717899 ] } },
{ "type": "Feature", "properties": { "行政区域コード": "13105", "公共施設大分類": "16", "公共施設小分類": "16002", "学校分類": "16002", "名称": "第一中学校", "所在地": "小石川5-8-9", "管理者コード": 3.0 }, "geometry": { "type": "Point", "coordinates": [ 139.738823, 35.718038 ] } },
{ "type": "Feature", "properties": { "行政区域コード": "13105", "公共施設大分類": "16", "公共施設小分類": "16002", "学校分類": "16002", "名称": "第九中学校", "所在地": "本駒込3-28-9", "管理者コード": 3.0 }, "geometry": { "type": "Point", "coordinates": [ 139.752793, 35.729648 ] } },
{ "type": "Feature", "properties": { "行政区域コード": "13105", "公共施設大分類": "16", "公共施設小分類": "16002", "学校分類": "16002", "名称": "第三中学校", "所在地": "春日1-9-31", "管理者コード": 3.0 }, "geometry": { "type": "Point", "coordinates": [ 139.747072, 35.70915 ] } },
{ "type": "Feature", "properties": { "行政区域コード": "13105", "公共施設大分類": "16", "公共施設小分類": "16002", "学校分類": "16002", "名称": "第十中学校", "所在地": "千石2-40-17", "管理者コード": 3.0 }, "geometry": { "type": "Point", "coordinates": [ 139.7426, 35.723399 ] } },
{ "type": "Feature", "properties": { "行政区域コード": "13105", "公共施設大分類": "16", "公共施設小分類": "16002", "学校分類": "16002", "名称": "第八中学校", "所在地": "千駄木2-19-22", "管理者コード": 3.0 }, "geometry": { "type": "Point", "coordinates": [ 139.76071, 35.724205 ] } },
{ "type": "Feature", "properties": { "行政区域コード": "13105", "公共施設大分類": "16", "公共施設小分類": "16002", "学校分類": "16002", "名称": "第六中学校", "所在地": "向丘1-2-15", "管理者コード": 3.0 }, "geometry": { "type": "Point", "coordinates": [ 139.757766, 35.717094 ] } },
{ "type": "Feature", "properties": { "行政区域コード": "13105", "公共施設大分類": "16", "公共施設小分類": "16002", "学校分類": "16002", "名称": "筑波大学附属中学校", "所在地": "大塚1-9-1", "管理者コード": 1.0 }, "geometry": { "type": "Point", "coordinates": [ 139.730462, 35.71676 ] } },
{ "type": "Feature", "properties": { "行政区域コード": "13105", "公共施設大分類": "16", "公共施設小分類": "16002", "学校分類": "16002", "名称": "貞静学園中学校", "所在地": "大塚1-2-10", "管理者コード": 4.0 }, "geometry": { "type": "Point", "coordinates": [ 139.735601, 35.716483 ] } },
{ "type": "Feature", "properties": { "行政区域コード": "13105", "公共施設大分類": "16", "公共施設小分類": "16002", "学校分類": "16002", "名称": "東京学芸大学附属竹早中学校", "所在地": "小石川4-2-1", "管理者コード": 1.0 }, "geometry": { "type": "Point", "coordinates": [ 139.743184, 35.713233 ] } },
{ "type": "Feature", "properties": { "行政区域コード": "13105", "公共施設大分類": "16", "公共施設小分類": "16002", "学校分類": "16002", "名称": "東邦音楽大学附属東邦中学校", "所在地": "大塚4-46-9", "管理者コード": 4.0 }, "geometry": { "type": "Point", "coordinates": [ 139.731545, 35.722787 ] } },
{ "type": "Feature", "properties": { "行政区域コード": "13105", "公共施設大分類": "16", "公共施設小分類": "16002", "学校分類": "16002", "名称": "日本大学豊山中学校", "所在地": "大塚5-40-10", "管理者コード": 4.0 }, "geometry": { "type": "Point", "coordinates": [ 139.725629, 35.720371 ] } },
{ "type": "Feature", "properties": { "行政区域コード": "13105", "公共施設大分類": "16", "公共施設小分類": "16002", "学校分類": "16002", "名称": "文京学院大学女子中学校", "所在地": "本駒込6-18-3", "管理者コード": 4.0 }, "geometry": { "type": "Point", "coordinates": [ 139.744822, 35.734509 ] } },
{ "type": "Feature", "properties": { "行政区域コード": "13105", "公共施設大分類": "16", "公共施設小分類": "16002", "学校分類": "16002", "名称": "文林中学校", "所在地": "千駄木5-25-10", "管理者コード": 3.0 }, "geometry": { "type": "Point", "coordinates": [ 139.758654, 35.728038 ] } },
{ "type": "Feature", "properties": { "行政区域コード": "13105", "公共施設大分類": "16", "公共施設小分類": "16002", "学校分類": "16002", "名称": "本郷台中学校", "所在地": "本郷2-38-23", "管理者コード": 3.0 }, "geometry": { "type": "Point", "coordinates": [ 139.75896, 35.707012 ] } },
{ "type": "Feature", "properties": { "行政区域コード": "13105", "公共施設大分類": "16", "公共施設小分類": "16002", "学校分類": "16002", "名称": "獨協中学校", "所在地": "関口3-8-1", "管理者コード": 4.0 }, "geometry": { "type": "Point", "coordinates": [ 139.727241, 35.713316 ] } },
{ "type": "Feature", "properties": { "行政区域コード": "13105", "公共施設大分類": "16", "公共施設小分類": "16002", "学校分類": "16002", "名称": "茗台中学校", "所在地": "春日2-9-5", "管理者コード": 3.0 }, "geometry": { "type": "Point", "coordinates": [ 139.740739, 35.713067 ] } },
{ "type": "Feature", "properties": { "行政区域コード": "13105", "公共施設大分類": "16", "公共施設小分類": "99999", "学校分類": "16002", "名称": "音羽中学校", "所在地": "大塚1-9-24", "管理者コード": 3.0 }, "geometry": { "type": "Point", "coordinates": [ 139.732849419813107, 35.717154458928334 ] } },
{ "type": "Feature", "properties": { "行政区域コード": "13105", "公共施設大分類": "16", "公共施設小分類": "99999", "学校分類": "16002", "名称": "村田学園小石川女子中学校", "所在地": "本駒込2-29-1", "管理者コード": 4.0 }, "geometry": { "type": "Point", "coordinates": [ 139.746650883962616, 35.728836408548275 ] } },
{ "type": "Feature", "properties": { "行政区域コード": "13105", "公共施設大分類": "16", "公共施設小分類": "16003", "学校分類": "16003", "名称": "小石川中等教育学校", "所在地": "本駒込2-29-29", "管理者コード": 2.0 }, "geometry": { "type": "Point", "coordinates": [ 139.745204, 35.728622 ] } },
{ "type": "Feature", "properties": { "行政区域コード": "13105", "公共施設大分類": "16", "公共施設小分類": "16004", "学校分類": "16004", "名称": "お茶の水女子大学附属高等学校", "所在地": "大塚2-1-1", "管理者コード": 1.0 }, "geometry": { "type": "Point", "coordinates": [ 139.732795, 35.719871 ] } },
{ "type": "Feature", "properties": { "行政区域コード": "13105", "公共施設大分類": "16", "公共施設小分類": "16004", "学校分類": "16004", "名称": "郁文館グローバル高等学校", "所在地": "向丘2-19-1", "管理者コード": 4.0 }, "geometry": { "type": "Point", "coordinates": [ 139.757571, 35.721733 ] } },
{ "type": "Feature", "properties": { "行政区域コード": "13105", "公共施設大分類": "16", "公共施設小分類": "16004", "学校分類": "16004", "名称": "郁文館高等学校", "所在地": "向丘2-19-1", "管理者コード": 4.0 }, "geometry": { "type": "Point", "coordinates": [ 139.757571, 35.721733 ] } },
{ "type": "Feature", "properties": { "行政区域コード": "13105", "公共施設大分類": "16", "公共施設小分類": "16004", "学校分類": "16004", "名称": "京華高等学校", "所在地": "白山5-6-6", "管理者コード": 4.0 }, "geometry": { "type": "Point", "coordinates": [ 139.749822, 35.721677 ] } },
{ "type": "Feature", "properties": { "行政区域コード": "13105", "公共施設大分類": "16", "公共施設小分類": "16004", "学校分類": "16004", "名称": "京華女子高等学校", "所在地": "白山5-13-5", "管理者コード": 4.0 }, "geometry": { "type": "Point", "coordinates": [ 139.747488, 35.723649 ] } },
{ "type": "Feature", "properties": { "行政区域コード": "13105", "公共施設大分類": "16", "公共施設小分類": "16004", "学校分類": "16004", "名称": "京華商業高等学校", "所在地": "白山5-6-6", "管理者コード": 4.0 }, "geometry": { "type": "Point", "coordinates": [ 139.749822, 35.721677 ] } },
{ "type": "Feature", "properties": { "行政区域コード": "13105", "公共施設大分類": "16", "公共施設小分類": "16004", "学校分類": "16004", "名称": "駒込高等学校", "所在地": "千駄木5-6-25", "管理者コード": 4.0 }, "geometry": { "type": "Point", "coordinates": [ 139.757071, 35.725399 ] } },
{ "type": "Feature", "properties": { "行政区域コード": "13105", "公共施設大分類": "16", "公共施設小分類": "16004", "学校分類": "16004", "名称": "向丘高等学校", "所在地": "向丘1-11-18", "管理者コード": 2.0 }, "geometry": { "type": "Point", "coordinates": [ 139.754599, 35.721705 ] } },
{ "type": "Feature", "properties": { "行政区域コード": "13105", "公共施設大分類": "16", "公共施設小分類": "16004", "学校分類": "16004", "名称": "工芸高等学校", "所在地": "本郷1-3-9", "管理者コード": 2.0 }, "geometry": { "type": "Point", "coordinates": [ 139.756294, 35.702513 ] } },
{ "type": "Feature", "properties": { "行政区域コード": "13105", "公共施設大分類": "16", "公共施設小分類": "16004", "学校分類": "16004", "名称": "桜蔭高等学校", "所在地": "本郷1-5-25", "管理者コード": 4.0 }, "geometry": { "type": "Point", "coordinates": [ 139.756599, 35.703679 ] } },
{ "type": "Feature", "properties": { "行政区域コード": "13105", "公共施設大分類": "16", "公共施設小分類": "16004", "学校分類": "16004", "名称": "淑徳ＳＣ高等部", "所在地": "小石川3-14-3", "管理者コード": 4.0 }, "geometry": { "type": "Point", "coordinates": [ 139.747766, 35.712567 ] } },
{ "type": "Feature", "properties": { "行政区域コード": "13105", "公共施設大分類": "16", "公共施設小分類": "16004", "学校分類": "16004", "名称": "昭和第一高等学校", "所在地": "本郷1-2-15", "管理者コード": 4.0 }, "geometry": { "type": "Point", "coordinates": [ 139.757349, 35.702707 ] } },
{ "type": "Feature", "properties": { "行政区域コード": "13105", "公共施設大分類": "16", "公共施設小分類": "16004", "学校分類": "16004", "名称": "跡見学園高等学校", "所在地": "大塚1-5-9", "管理者コード": 4.0 }, "geometry": { "type": "Point", "coordinates": [ 139.734573, 35.717899 ] } },
{ "type": "Feature", "properties": { "行政区域コード": "13105", "公共施設大分類": "16", "公共施設小分類": "16004", "学校分類": "16004", "名称": "村田女子高等学校", "所在地": "本駒込2-29-1", "管理者コード": 4.0 }, "geometry": { "type": "Point", "coordinates": [ 139.746544, 35.728843 ] } },
{ "type": "Feature", "properties": { "行政区域コード": "13105", "公共施設大分類": "16", "公共施設小分類": "16004", "学校分類": "16004", "名称": "竹早高等学校", "所在地": "小石川4-2-1", "管理者コード": 2.0 }, "geometry": { "type": "Point", "coordinates": [ 139.743961, 35.712872 ] } },
{ "type": "Feature", "properties": { "行政区域コード": "13105", "公共施設大分類": "16", "公共施設小分類": "16004", "学校分類": "16004", "名称": "筑波大学附属高等学校", "所在地": "大塚1-9-1", "管理者コード": 1.0 }, "geometry": { "type": "Point", "coordinates": [ 139.731323, 35.715899 ] } },
{ "type": "Feature", "properties": { "行政区域コード": "13105", "公共施設大分類": "16", "公共施設小分類": "16004", "学校分類": "16004", "名称": "中央大学高等学校", "所在地": "春日1-13-27", "管理者コード": 4.0 }, "geometry": { "type": "Point", "coordinates": [ 139.749711, 35.707567 ] } },
{ "type": "Feature", "properties": { "行政区域コード": "13105", "公共施設大分類": "16", "公共施設小分類": "16004", "学校分類": "16004", "名称": "貞静学園高等学校", "所在地": "大塚1-2-10", "管理者コード": 4.0 }, "geometry": { "type": "Point", "coordinates": [ 139.735601, 35.71651 ] } },
{ "type": "Feature", "properties": { "行政区域コード": "13105", "公共施設大分類": "16", "公共施設小分類": "16004", "学校分類": "16004", "名称": "東京音楽大学付属高等学校", "所在地": "関口3-12-1", "管理者コード": 4.0 }, "geometry": { "type": "Point", "coordinates": [ 139.72824, 35.714983 ] } },
{ "type": "Feature", "properties": { "行政区域コード": "13105", "公共施設大分類": "16", "公共施設小分類": "16004", "学校分類": "16004", "名称": "東邦音楽大学附属東邦高等学校", "所在地": "大塚4-46-9", "管理者コード": 4.0 }, "geometry": { "type": "Point", "coordinates": [ 139.73149, 35.722732 ] } },
{ "type": "Feature", "properties": { "行政区域コード": "13105", "公共施設大分類": "16", "公共施設小分類": "16004", "学校分類": "16004", "名称": "東洋女子高等学校", "所在地": "千石3-29-8", "管理者コード": 4.0 }, "geometry": { "type": "Point", "coordinates": [ 139.737434, 35.728842 ] } },
{ "type": "Feature", "properties": { "行政区域コード": "13105", "公共施設大分類": "16", "公共施設小分類": "16004", "学校分類": "16004", "名称": "日本大学豊山高等学校", "所在地": "大塚5-40-10", "管理者コード": 4.0 }, "geometry": { "type": "Point", "coordinates": [ 139.725629, 35.720371 ] } },
{ "type": "Feature", "properties": { "行政区域コード": "13105", "公共施設大分類": "16", "公共施設小分類": "16004", "学校分類": "16004", "名称": "文京学院大学女子高等学校", "所在地": "本駒込6-18-3", "管理者コード": 4.0 }, "geometry": { "type": "Point", "coordinates": [ 139.744099, 35.733287 ] } },
{ "type": "Feature", "properties": { "行政区域コード": "13105", "公共施設大分類": "16", "公共施設小分類": "16004", "学校分類": "16004", "名称": "獨協高等学校", "所在地": "関口3-8-1", "管理者コード": 4.0 }, "geometry": { "type": "Point", "coordinates": [ 139.727241, 35.713316 ] } },
{ "type": "Feature", "properties": { "行政区域コード": "13105", "公共施設大分類": "16", "公共施設小分類": "16006", "学校分類": "16006", "名称": "東邦音楽短期大学", "所在地": "大塚4-46-9", "管理者コード": 4.0 }, "geometry": { "type": "Point", "coordinates": [ 139.731573, 35.722954 ] } },
{ "type": "Feature", "properties": { "行政区域コード": "13105", "公共施設大分類": "16", "公共施設小分類": "16006", "学校分類": "16006", "名称": "文京学院短期大学", "所在地": "向丘1-19-1", "管理者コード": 4.0 }, "geometry": { "type": "Point", "coordinates": [ 139.757405, 35.718205 ] } },
{ "type": "Feature", "properties": { "行政区域コード": "13105", "公共施設大分類": "16", "公共施設小分類": "99999", "学校分類": "16006", "名称": "貞静学園短期大学", "所在地": "小日向1-26-13", "管理者コード": 4.0 }, "geometry": { "type": "Point", "coordinates": [ 139.737877796934583, 35.714980595853561 ] } },
{ "type": "Feature", "properties": { "行政区域コード": "13105", "公共施設大分類": "16", "公共施設小分類": "16007", "学校分類": "16007", "名称": "お茶の水女子大学", "所在地": "大塚2-1-1", "管理者コード": 1.0 }, "geometry": { "type": "Point", "coordinates": [ 139.732629, 35.718788 ] } },
{ "type": "Feature", "properties": { "行政区域コード": "13105", "公共施設大分類": "16", "公共施設小分類": "16007", "学校分類": "16007", "名称": "国際仏教学大学院大学", "所在地": "春日2-8-9", "管理者コード": 4.0 }, "geometry": { "type": "Point", "coordinates": [ 139.740931883962588, 35.71147212348675 ] } },
{ "type": "Feature", "properties": { "行政区域コード": "13105", "公共施設大分類": "16", "公共施設小分類": "16007", "学校分類": "16007", "名称": "順天堂大学", "所在地": "本郷2-1-1", "管理者コード": 4.0 }, "geometry": { "type": "Point", "coordinates": [ 139.760516, 35.702624 ] } },
{ "type": "Feature", "properties": { "行政区域コード": "13105", "公共施設大分類": "16", "公共施設小分類": "16007", "学校分類": "16007", "名称": "拓殖大学", "所在地": "小日向3-4-14", "管理者コード": 4.0 }, "geometry": { "type": "Point", "coordinates": [ 139.736323, 35.715288 ] } },
{ "type": "Feature", "properties": { "行政区域コード": "13105", "公共施設大分類": "16", "公共施設小分類": "16007", "学校分類": "16007", "名称": "中央大学", "所在地": "春日1-13-27", "管理者コード": 4.0 }, "geometry": { "type": "Point", "coordinates": [ 139.748433, 35.708539 ] } },
{ "type": "Feature", "properties": { "行政区域コード": "13105", "公共施設大分類": "16", "公共施設小分類": "16007", "学校分類": "16007", "名称": "東京医科歯科大学", "所在地": "湯島1-5-45", "管理者コード": 1.0 }, "geometry": { "type": "Point", "coordinates": [ 139.764016, 35.701874 ] } },
{ "type": "Feature", "properties": { "行政区域コード": "13105", "公共施設大分類": "16", "公共施設小分類": "16007", "学校分類": "16007", "名称": "東京大学", "所在地": "本郷7-3-1", "管理者コード": 1.0 }, "geometry": { "type": "Point", "coordinates": [ 139.763123, 35.712522 ] } },
{ "type": "Feature", "properties": { "行政区域コード": "13105", "公共施設大分類": "16", "公共施設小分類": "16007", "学校分類": "16007", "名称": "東京大学", "所在地": "弥生1-1-1", "管理者コード": 1.0 }, "geometry": { "type": "Point", "coordinates": [ 139.760682, 35.716483 ] } },
{ "type": "Feature", "properties": { "行政区域コード": "13105", "公共施設大分類": "16", "公共施設小分類": "16007", "学校分類": "16007", "名称": "東洋学園大学", "所在地": "本郷1-26-3", "管理者コード": 4.0 }, "geometry": { "type": "Point", "coordinates": [ 139.757606, 35.704667 ] } },
{ "type": "Feature", "properties": { "行政区域コード": "13105", "公共施設大分類": "16", "公共施設小分類": "16007", "学校分類": "16007", "名称": "東洋大学", "所在地": "白山5-28-20", "管理者コード": 4.0 }, "geometry": { "type": "Point", "coordinates": [ 139.750405, 35.723705 ] } },
{ "type": "Feature", "properties": { "行政区域コード": "13105", "公共施設大分類": "16", "公共施設小分類": "16007", "学校分類": "16007", "名称": "日本医科大学", "所在地": "千駄木1-1-5", "管理者コード": 4.0 }, "geometry": { "type": "Point", "coordinates": [ 139.759015, 35.721455 ] } },
{ "type": "Feature", "properties": { "行政区域コード": "13105", "公共施設大分類": "16", "公共施設小分類": "16007", "学校分類": "16007", "名称": "日本女子大学", "所在地": "目白台2-8-1", "管理者コード": 4.0 }, "geometry": { "type": "Point", "coordinates": [ 139.720102, 35.716871 ] } },
{ "type": "Feature", "properties": { "行政区域コード": "13105", "公共施設大分類": "16", "公共施設小分類": "16007", "学校分類": "16007", "名称": "文京学院大学", "所在地": "向丘1-19-1", "管理者コード": 4.0 }, "geometry": { "type": "Point", "coordinates": [ 139.757361, 35.718468 ] } },
{ "type": "Feature", "properties": { "行政区域コード": "13105", "公共施設大分類": "16", "公共施設小分類": "99999", "学校分類": "16007", "名称": "跡見学園女子大学", "所在地": "大塚1-5-2", "管理者コード": 4.0 }, "geometry": { "type": "Point", "coordinates": [ 139.734818572523352, 35.716777557347768 ] } },
{ "type": "Feature", "properties": { "行政区域コード": "13105", "公共施設大分類": "16", "公共施設小分類": "99999", "学校分類": "16007", "名称": "東邦音楽大学", "所在地": "大塚4-46-9", "管理者コード": 4.0 }, "geometry": { "type": "Point", "coordinates": [ 139.731413609196153, 35.723099 ] } },
{ "type": "Feature", "properties": { "行政区域コード": "13105", "公共施設大分類": "16", "公共施設小分類": "99999", "学校分類": "16007", "名称": "東洋大学", "所在地": "白山2-36-5", "管理者コード": 4.0 }, "geometry": { "type": "Point", "coordinates": [ 139.748781825943951, 35.717875852264299 ] } },
{ "type": "Feature", "properties": { "行政区域コード": "13105", "公共施設大分類": "16", "公共施設小分類": "16008", "学校分類": "16012", "名称": "筑波大学附属視覚特別支援学校", "所在地": "目白台3-27-6", "管理者コード": 1.0 }, "geometry": { "type": "Point", "coordinates": [ 139.726213, 35.718427 ] } },
{ "type": "Feature", "properties": { "行政区域コード": "13105", "公共施設大分類": "16", "公共施設小分類": "16008", "学校分類": "16012", "名称": "文京盲学校", "所在地": "後楽1-7-6", "管理者コード": 2.0 }, "geometry": { "type": "Point", "coordinates": [ 139.746989, 35.705929 ] } },
{ "type": "Feature", "properties": { "行政区域コード": "13105", "公共施設大分類": "16", "公共施設小分類": "16010", "学校分類": "16012", "名称": "筑波大学附属大塚特別支援学校", "所在地": "春日1-5-5", "管理者コード": 1.0 }, "geometry": { "type": "Point", "coordinates": [ 139.747739, 35.707762 ] } },
{ "type": "Feature", "properties": { "行政区域コード": "13106", "公共施設大分類": "16", "公共施設小分類": "16001", "学校分類": "16001", "名称": "金曽木小学校", "所在地": "根岸4-16-22", "管理者コード": 3.0 }, "geometry": { "type": "Point", "coordinates": [ 139.785236, 35.725928 ] } },
{ "type": "Feature", "properties": { "行政区域コード": "13106", "公共施設大分類": "16", "公共施設小分類": "16001", "学校分類": "16001", "名称": "金竜小学校", "所在地": "千束1-9-9", "管理者コード": 3.0 }, "geometry": { "type": "Point", "coordinates": [ 139.790291, 35.718623 ] } },
{ "type": "Feature", "properties": { "行政区域コード": "13106", "公共施設大分類": "16", "公共施設小分類": "16001", "学校分類": "16001", "名称": "黒門小学校", "所在地": "上野1-16-20", "管理者コード": 3.0 }, "geometry": { "type": "Point", "coordinates": [ 139.770987, 35.706957 ] } },
{ "type": "Feature", "properties": { "行政区域コード": "13106", "公共施設大分類": "16", "公共施設小分類": "16001", "学校分類": "16001", "名称": "根岸小学校", "所在地": "根岸3-9-8", "管理者コード": 3.0 }, "geometry": { "type": "Point", "coordinates": [ 139.778875, 35.723678 ] } },
{ "type": "Feature", "properties": { "行政区域コード": "13106", "公共施設大分類": "16", "公共施設小分類": "16001", "学校分類": "16001", "名称": "松葉小学校", "所在地": "松が谷1-13-16", "管理者コード": 3.0 }, "geometry": { "type": "Point", "coordinates": [ 139.786459, 35.712429 ] } },
{ "type": "Feature", "properties": { "行政区域コード": "13106", "公共施設大分類": "16", "公共施設小分類": "16001", "学校分類": "16001", "名称": "上野小学校", "所在地": "東上野6-16-8", "管理者コード": 3.0 }, "geometry": { "type": "Point", "coordinates": [ 139.783875, 35.713568 ] } },
{ "type": "Feature", "properties": { "行政区域コード": "13106", "公共施設大分類": "16", "公共施設小分類": "16001", "学校分類": "16001", "名称": "石浜小学校", "所在地": "清川1-14-21", "管理者コード": 3.0 }, "geometry": { "type": "Point", "coordinates": [ 139.803374, 35.724595 ] } },
{ "type": "Feature", "properties": { "行政区域コード": "13106", "公共施設大分類": "16", "公共施設小分類": "16001", "学校分類": "16001", "名称": "千束小学校", "所在地": "浅草4-24-11", "管理者コード": 3.0 }, "geometry": { "type": "Point", "coordinates": [ 139.794318, 35.719428 ] } },
{ "type": "Feature", "properties": { "行政区域コード": "13106", "公共施設大分類": "16", "公共施設小分類": "16001", "学校分類": "16001", "名称": "浅草小学校", "所在地": "花川戸1-14-15", "管理者コード": 3.0 }, "geometry": { "type": "Point", "coordinates": [ 139.799096, 35.713568 ] } },
{ "type": "Feature", "properties": { "行政区域コード": "13106", "公共施設大分類": "16", "公共施設小分類": "16001", "学校分類": "16001", "名称": "蔵前小学校", "所在地": "蔵前4-19-11", "管理者コード": 3.0 }, "geometry": { "type": "Point", "coordinates": [ 139.789292, 35.70443 ] } },
{ "type": "Feature", "properties": { "行政区域コード": "13106", "公共施設大分類": "16", "公共施設小分類": "16001", "学校分類": "16001", "名称": "台東育英小学校", "所在地": "浅草橋2-26-8", "管理者コード": 3.0 }, "geometry": { "type": "Point", "coordinates": [ 139.785515, 35.700097 ] } },
{ "type": "Feature", "properties": { "行政区域コード": "13106", "公共施設大分類": "16", "公共施設小分類": "16001", "学校分類": "16001", "名称": "大正小学校", "所在地": "入谷2-23-8", "管理者コード": 3.0 }, "geometry": { "type": "Point", "coordinates": [ 139.788125, 35.720928 ] } },
{ "type": "Feature", "properties": { "行政区域コード": "13106", "公共施設大分類": "16", "公共施設小分類": "16001", "学校分類": "16001", "名称": "谷中小学校", "所在地": "谷中2-9-16", "管理者コード": 3.0 }, "geometry": { "type": "Point", "coordinates": [ 139.765182, 35.723705 ] } },
{ "type": "Feature", "properties": { "行政区域コード": "13106", "公共施設大分類": "16", "公共施設小分類": "16001", "学校分類": "16001", "名称": "田原小学校", "所在地": "雷門1-5-14", "管理者コード": 3.0 }, "geometry": { "type": "Point", "coordinates": [ 139.792458, 35.710013 ] } },
{ "type": "Feature", "properties": { "行政区域コード": "13106", "公共施設大分類": "16", "公共施設小分類": "16001", "学校分類": "16001", "名称": "東泉小学校", "所在地": "三ノ輪1-23-9", "管理者コード": 3.0 }, "geometry": { "type": "Point", "coordinates": [ 139.792096, 35.728427 ] } },
{ "type": "Feature", "properties": { "行政区域コード": "13106", "公共施設大分類": "16", "公共施設小分類": "16001", "学校分類": "16001", "名称": "東浅草小学校", "所在地": "東浅草2-27-19", "管理者コード": 3.0 }, "geometry": { "type": "Point", "coordinates": [ 139.798457, 35.724345 ] } },
{ "type": "Feature", "properties": { "行政区域コード": "13106", "公共施設大分類": "16", "公共施設小分類": "16001", "学校分類": "16001", "名称": "忍岡小学校", "所在地": "池之端2-1-22", "管理者コード": 3.0 }, "geometry": { "type": "Point", "coordinates": [ 139.766834, 35.713954 ] } },
{ "type": "Feature", "properties": { "行政区域コード": "13106", "公共施設大分類": "16", "公共施設小分類": "16001", "学校分類": "16001", "名称": "富士小学校", "所在地": "浅草4-48-9", "管理者コード": 3.0 }, "geometry": { "type": "Point", "coordinates": [ 139.798374, 35.718651 ] } },
{ "type": "Feature", "properties": { "行政区域コード": "13106", "公共施設大分類": "16", "公共施設小分類": "16001", "学校分類": "16001", "名称": "平成小学校", "所在地": "台東4-21-15", "管理者コード": 3.0 }, "geometry": { "type": "Point", "coordinates": [ 139.780154, 35.706124 ] } },
{ "type": "Feature", "properties": { "行政区域コード": "13106", "公共施設大分類": "16", "公共施設小分類": "16002", "学校分類": "16002", "名称": "駒形中学校", "所在地": "北上野2-15-1", "管理者コード": 3.0 }, "geometry": { "type": "Point", "coordinates": [ 139.784264, 35.717512 ] } },
{ "type": "Feature", "properties": { "行政区域コード": "13106", "公共施設大分類": "16", "公共施設小分類": "16002", "学校分類": "16002", "名称": "御徒町台東中学校", "所在地": "台東4-13-16", "管理者コード": 3.0 }, "geometry": { "type": "Point", "coordinates": [ 139.777515, 35.706957 ] } },
{ "type": "Feature", "properties": { "行政区域コード": "13106", "公共施設大分類": "16", "公共施設小分類": "16002", "学校分類": "16002", "名称": "桜橋中学校", "所在地": "今戸2-1-8", "管理者コード": 3.0 }, "geometry": { "type": "Point", "coordinates": [ 139.806846, 35.720791 ] } },
{ "type": "Feature", "properties": { "行政区域コード": "13106", "公共施設大分類": "16", "公共施設小分類": "16002", "学校分類": "16002", "名称": "上野学園中学校", "所在地": "東上野4-24-12", "管理者コード": 4.0 }, "geometry": { "type": "Point", "coordinates": [ 139.781959, 35.715068 ] } },
{ "type": "Feature", "properties": { "行政区域コード": "13106", "公共施設大分類": "16", "公共施設小分類": "16002", "学校分類": "16002", "名称": "上野中学校", "所在地": "上野桜木1-14-55", "管理者コード": 3.0 }, "geometry": { "type": "Point", "coordinates": [ 139.774903, 35.721345 ] } },
{ "type": "Feature", "properties": { "行政区域コード": "13106", "公共施設大分類": "16", "公共施設小分類": "16002", "学校分類": "16002", "名称": "浅草中学校", "所在地": "蔵前1-3-4", "管理者コード": 3.0 }, "geometry": { "type": "Point", "coordinates": [ 139.789932, 35.69993 ] } },
{ "type": "Feature", "properties": { "行政区域コード": "13106", "公共施設大分類": "16", "公共施設小分類": "16002", "学校分類": "16002", "名称": "忍岡中学校", "所在地": "上野公園18-20", "管理者コード": 3.0 }, "geometry": { "type": "Point", "coordinates": [ 139.778986, 35.719317 ] } },
{ "type": "Feature", "properties": { "行政区域コード": "13106", "公共施設大分類": "16", "公共施設小分類": "16002", "学校分類": "16002", "名称": "柏葉中学校", "所在地": "下谷3-1-29", "管理者コード": 3.0 }, "geometry": { "type": "Point", "coordinates": [ 139.785903, 35.723595 ] } },
{ "type": "Feature", "properties": { "行政区域コード": "13106", "公共施設大分類": "16", "公共施設小分類": "16002", "学校分類": "16002", "名称": "白オウ高等学校附属中学校", "所在地": "元浅草3-12-12", "管理者コード": 2.0 }, "geometry": { "type": "Point", "coordinates": [ 139.787375, 35.70718 ] } },
{ "type": "Feature", "properties": { "行政区域コード": "13106", "公共施設大分類": "16", "公共施設小分類": "16004", "学校分類": "16004", "名称": "岩倉高等学校", "所在地": "上野7-8-8", "管理者コード": 4.0 }, "geometry": { "type": "Point", "coordinates": [ 139.77904, 35.714476 ] } },
{ "type": "Feature", "properties": { "行政区域コード": "13106", "公共施設大分類": "16", "公共施設小分類": "16004", "学校分類": "16004", "名称": "上野学園高等学校", "所在地": "東上野4-24-12", "管理者コード": 4.0 }, "geometry": { "type": "Point", "coordinates": [ 139.781959, 35.715068 ] } },
{ "type": "Feature", "properties": { "行政区域コード": "13106", "公共施設大分類": "16", "公共施設小分類": "16004", "学校分類": "16004", "名称": "上野高等学校", "所在地": "上野公園10-14", "管理者コード": 2.0 }, "geometry": { "type": "Point", "coordinates": [ 139.769904, 35.71865 ] } },
{ "type": "Feature", "properties": { "行政区域コード": "13106", "公共施設大分類": "16", "公共施設小分類": "16004", "学校分類": "16004", "名称": "浅草高等学校", "所在地": "今戸1-8-13", "管理者コード": 2.0 }, "geometry": { "type": "Point", "coordinates": [ 139.802485, 35.719596 ] } },
{ "type": "Feature", "properties": { "行政区域コード": "13106", "公共施設大分類": "16", "公共施設小分類": "16004", "学校分類": "16004", "名称": "蔵前工業高等学校", "所在地": "蔵前1-3-57", "管理者コード": 2.0 }, "geometry": { "type": "Point", "coordinates": [ 139.791793, 35.700375 ] } },
{ "type": "Feature", "properties": { "行政区域コード": "13106", "公共施設大分類": "16", "公共施設小分類": "16004", "学校分類": "16004", "名称": "東京芸術大学音楽学部附属音楽高等学校", "所在地": "上野公園12-8", "管理者コード": 1.0 }, "geometry": { "type": "Point", "coordinates": [ 139.772595, 35.71977 ] } },
{ "type": "Feature", "properties": { "行政区域コード": "13106", "公共施設大分類": "16", "公共施設小分類": "16004", "学校分類": "16004", "名称": "白オウ高等学校", "所在地": "元浅草1-6-22", "管理者コード": 2.0 }, "geometry": { "type": "Point", "coordinates": [ 139.783042, 35.708179 ] } },
{ "type": "Feature", "properties": { "行政区域コード": "13106", "公共施設大分類": "16", "公共施設小分類": "99999", "学校分類": "16004", "名称": "忍岡高等学校", "所在地": "浅草橋5-1-24", "管理者コード": 2.0 }, "geometry": { "type": "Point", "coordinates": [ 139.78267043349544, 35.700084084237567 ] } },
{ "type": "Feature", "properties": { "行政区域コード": "13106", "公共施設大分類": "16", "公共施設小分類": "16006", "学校分類": "16006", "名称": "上野学園大学短期大学部", "所在地": "東上野4-24-12", "管理者コード": 4.0 }, "geometry": { "type": "Point", "coordinates": [ 139.781959, 35.715068 ] } },
{ "type": "Feature", "properties": { "行政区域コード": "13106", "公共施設大分類": "16", "公共施設小分類": "16007", "学校分類": "16007", "名称": "上野学園大学", "所在地": "東上野4-24-12", "管理者コード": 4.0 }, "geometry": { "type": "Point", "coordinates": [ 139.782018, 35.715647 ] } },
{ "type": "Feature", "properties": { "行政区域コード": "13106", "公共施設大分類": "16", "公共施設小分類": "16007", "学校分類": "16007", "名称": "東京芸術大学", "所在地": "上野公園12-8", "管理者コード": 1.0 }, "geometry": { "type": "Point", "coordinates": [ 139.772265, 35.720178 ] } },
{ "type": "Feature", "properties": { "行政区域コード": "13107", "公共施設大分類": "16", "公共施設小分類": "16001", "学校分類": "16001", "名称": "曳舟小学校", "所在地": "京島1-28-2", "管理者コード": 3.0 }, "geometry": { "type": "Point", "coordinates": [ 139.820928, 35.716653 ] } },
{ "type": "Feature", "properties": { "行政区域コード": "13107", "公共施設大分類": "16", "公共施設小分類": "16001", "学校分類": "16001", "名称": "押上小学校", "所在地": "押上3-46-17", "管理者コード": 3.0 }, "geometry": { "type": "Point", "coordinates": [ 139.819368, 35.711917 ] } },
{ "type": "Feature", "properties": { "行政区域コード": "13107", "公共施設大分類": "16", "公共施設小分類": "16001", "学校分類": "16001", "名称": "横川小学校", "所在地": "東駒形4-18-4", "管理者コード": 3.0 }, "geometry": { "type": "Point", "coordinates": [ 139.806318, 35.707235 ] } },
{ "type": "Feature", "properties": { "行政区域コード": "13107", "公共施設大分類": "16", "公共施設小分類": "16001", "学校分類": "16001", "名称": "外手小学校", "所在地": "本所2-1-16", "管理者コード": 3.0 }, "geometry": { "type": "Point", "coordinates": [ 139.800597, 35.702513 ] } },
{ "type": "Feature", "properties": { "行政区域コード": "13107", "公共施設大分類": "16", "公共施設小分類": "16001", "学校分類": "16001", "名称": "菊川小学校", "所在地": "立川4-12-15", "管理者コード": 3.0 }, "geometry": { "type": "Point", "coordinates": [ 139.807653, 35.69157 ] } },
{ "type": "Feature", "properties": { "行政区域コード": "13107", "公共施設大分類": "16", "公共施設小分類": "16001", "学校分類": "16001", "名称": "業平小学校", "所在地": "業平2-4-8", "管理者コード": 3.0 }, "geometry": { "type": "Point", "coordinates": [ 139.811651, 35.706374 ] } },
{ "type": "Feature", "properties": { "行政区域コード": "13107", "公共施設大分類": "16", "公共施設小分類": "16001", "学校分類": "16001", "名称": "錦糸小学校", "所在地": "錦糸1-9-12", "管理者コード": 3.0 }, "geometry": { "type": "Point", "coordinates": [ 139.81143, 35.698514 ] } },
{ "type": "Feature", "properties": { "行政区域コード": "13107", "公共施設大分類": "16", "公共施設小分類": "16001", "学校分類": "16001", "名称": "隅田小学校", "所在地": "墨田4-6-5", "管理者コード": 3.0 }, "geometry": { "type": "Point", "coordinates": [ 139.822042795289889, 35.73421634099185 ] } },
{ "type": "Feature", "properties": { "行政区域コード": "13107", "公共施設大分類": "16", "公共施設小分類": "16001", "学校分類": "16001", "名称": "言問小学校", "所在地": "向島5-40-14", "管理者コード": 3.0 }, "geometry": { "type": "Point", "coordinates": [ 139.811373, 35.718513 ] } },
{ "type": "Feature", "properties": { "行政区域コード": "13107", "公共施設大分類": "16", "公共施設小分類": "16001", "学校分類": "16001", "名称": "小梅小学校", "所在地": "向島2-4-10", "管理者コード": 3.0 }, "geometry": { "type": "Point", "coordinates": [ 139.805984, 35.714513 ] } },
{ "type": "Feature", "properties": { "行政区域コード": "13107", "公共施設大分類": "16", "公共施設小分類": "16001", "学校分類": "16001", "名称": "第一寺島小学校", "所在地": "東向島1-16-2", "管理者コード": 3.0 }, "geometry": { "type": "Point", "coordinates": [ 139.814484, 35.721569 ] } },
{ "type": "Feature", "properties": { "行政区域コード": "13107", "公共施設大分類": "16", "公共施設小分類": "16001", "学校分類": "16001", "名称": "第三吾嬬小学校", "所在地": "八広2-36-3", "管理者コード": 3.0 }, "geometry": { "type": "Point", "coordinates": [ 139.827899, 35.717097 ] } },
{ "type": "Feature", "properties": { "行政区域コード": "13107", "公共施設大分類": "16", "公共施設小分類": "16001", "学校分類": "16001", "名称": "第三寺島小学校", "所在地": "東向島6-8-1", "管理者コード": 3.0 }, "geometry": { "type": "Point", "coordinates": [ 139.8204, 35.721374 ] } },
{ "type": "Feature", "properties": { "行政区域コード": "13107", "公共施設大分類": "16", "公共施設小分類": "16001", "学校分類": "16001", "名称": "第四吾嬬小学校", "所在地": "京島3-64-9", "管理者コード": 3.0 }, "geometry": { "type": "Point", "coordinates": [ 139.825094, 35.713403 ] } },
{ "type": "Feature", "properties": { "行政区域コード": "13107", "公共施設大分類": "16", "公共施設小分類": "16001", "学校分類": "16001", "名称": "第二寺島小学校", "所在地": "東向島4-30-2", "管理者コード": 3.0 }, "geometry": { "type": "Point", "coordinates": [ 139.818595, 35.724707 ] } },
{ "type": "Feature", "properties": { "行政区域コード": "13107", "公共施設大分類": "16", "公共施設小分類": "16001", "学校分類": "16001", "名称": "中川小学校", "所在地": "立花5-49-4", "管理者コード": 3.0 }, "geometry": { "type": "Point", "coordinates": [ 139.831371, 35.713569 ] } },
{ "type": "Feature", "properties": { "行政区域コード": "13107", "公共施設大分類": "16", "公共施設小分類": "16001", "学校分類": "16001", "名称": "中和小学校", "所在地": "菊川1-18-10", "管理者コード": 3.0 }, "geometry": { "type": "Point", "coordinates": [ 139.802737, 35.690209 ] } },
{ "type": "Feature", "properties": { "行政区域コード": "13107", "公共施設大分類": "16", "公共施設小分類": "16001", "学校分類": "16001", "名称": "東吾嬬小学校", "所在地": "立花4-22-11", "管理者コード": 3.0 }, "geometry": { "type": "Point", "coordinates": [ 139.832038, 35.708597 ] } },
{ "type": "Feature", "properties": { "行政区域コード": "13107", "公共施設大分類": "16", "公共施設小分類": "16001", "学校分類": "16001", "名称": "二葉小学校", "所在地": "石原2-1-5", "管理者コード": 3.0 }, "geometry": { "type": "Point", "coordinates": [ 139.80032, 35.699236 ] } },
{ "type": "Feature", "properties": { "行政区域コード": "13107", "公共施設大分類": "16", "公共施設小分類": "16001", "学校分類": "16001", "名称": "梅若小学校", "所在地": "墨田2-25-1", "管理者コード": 3.0 }, "geometry": { "type": "Point", "coordinates": [ 139.81554, 35.730318 ] } },
{ "type": "Feature", "properties": { "行政区域コード": "13107", "公共施設大分類": "16", "公共施設小分類": "16001", "学校分類": "16001", "名称": "八広小学校", "所在地": "八広5-12-15", "管理者コード": 3.0 }, "geometry": { "type": "Point", "coordinates": [ 139.826149, 35.72718 ] } },
{ "type": "Feature", "properties": { "行政区域コード": "13107", "公共施設大分類": "16", "公共施設小分類": "16001", "学校分類": "16001", "名称": "柳島小学校", "所在地": "横川5-2-30", "管理者コード": 3.0 }, "geometry": { "type": "Point", "coordinates": [ 139.817762, 35.703819 ] } },
{ "type": "Feature", "properties": { "行政区域コード": "13107", "公共施設大分類": "16", "公共施設小分類": "16001", "学校分類": "16001", "名称": "両国小学校", "所在地": "両国4-26-6", "管理者コード": 3.0 }, "geometry": { "type": "Point", "coordinates": [ 139.795182, 35.693792 ] } },
{ "type": "Feature", "properties": { "行政区域コード": "13107", "公共施設大分類": "16", "公共施設小分類": "16001", "学校分類": "16001", "名称": "緑小学校", "所在地": "緑2-12-12", "管理者コード": 3.0 }, "geometry": { "type": "Point", "coordinates": [ 139.801154, 35.694098 ] } },
{ "type": "Feature", "properties": { "行政区域コード": "13107", "公共施設大分類": "16", "公共施設小分類": "99999", "学校分類": "16001", "名称": "立花吾嬬の森小学校", "所在地": "立花1-18-6", "管理者コード": 3.0 }, "geometry": { "type": "Point", "coordinates": [ 139.829695955663595, 35.706355374885291 ] } },
{ "type": "Feature", "properties": { "行政区域コード": "13107", "公共施設大分類": "16", "公共施設小分類": "16002", "学校分類": "16002", "名称": "安田学園中学校", "所在地": "横網2-2-25", "管理者コード": 4.0 }, "geometry": { "type": "Point", "coordinates": [ 139.795765, 35.69993 ] } },
{ "type": "Feature", "properties": { "行政区域コード": "13107", "公共施設大分類": "16", "公共施設小分類": "16002", "学校分類": "16002", "名称": "錦糸中学校", "所在地": "石原4-33-14", "管理者コード": 3.0 }, "geometry": { "type": "Point", "coordinates": [ 139.806958, 35.701458 ] } },
{ "type": "Feature", "properties": { "行政区域コード": "13107", "公共施設大分類": "16", "公共施設小分類": "16002", "学校分類": "16002", "名称": "吾嬬第一中学校", "所在地": "立花5-48-9", "管理者コード": 3.0 }, "geometry": { "type": "Point", "coordinates": [ 139.831926, 35.712986 ] } },
{ "type": "Feature", "properties": { "行政区域コード": "13107", "公共施設大分類": "16", "公共施設小分類": "16002", "学校分類": "16002", "名称": "吾嬬第二中学校", "所在地": "八広4-4-4", "管理者コード": 3.0 }, "geometry": { "type": "Point", "coordinates": [ 139.827149, 35.721846 ] } },
{ "type": "Feature", "properties": { "行政区域コード": "13107", "公共施設大分類": "16", "公共施設小分類": "16002", "学校分類": "16002", "名称": "向島中学校", "所在地": "東向島4-18-9", "管理者コード": 3.0 }, "geometry": { "type": "Point", "coordinates": [ 139.817179, 35.726096 ] } },
{ "type": "Feature", "properties": { "行政区域コード": "13107", "公共施設大分類": "16", "公共施設小分類": "16002", "学校分類": "16002", "名称": "寺島中学校", "所在地": "八広1-17-15", "管理者コード": 3.0 }, "geometry": { "type": "Point", "coordinates": [ 139.823094, 35.720152 ] } },
{ "type": "Feature", "properties": { "行政区域コード": "13107", "公共施設大分類": "16", "公共施設小分類": "16002", "学校分類": "16002", "名称": "鐘淵中学校", "所在地": "堤通2-11-1", "管理者コード": 3.0 }, "geometry": { "type": "Point", "coordinates": [ 139.816344, 35.738539 ] } },
{ "type": "Feature", "properties": { "行政区域コード": "13107", "公共施設大分類": "16", "公共施設小分類": "16002", "学校分類": "16002", "名称": "竪川中学校", "所在地": "亀沢4-11-15", "管理者コード": 3.0 }, "geometry": { "type": "Point", "coordinates": [ 139.805708, 35.696847 ] } },